parent,label,ags,date,updated,confirmed,recovered,deaths,lon,lat,source,source_url,scraper
Baden-Württemberg,Alb-Donau-Kreis,08425,2020-03-30T19:00:00+02:00,1585587600000,217,0,0,9.727446,48.349318,Sozialministerium Baden Württemberg,https://sozialministerium.baden-wuerttemberg.de/de/gesundheit-pflege/gesundheitsschutz/infektionsschutz-hygiene/informationen-zu-coronavirus/,regio
Baden-Württemberg,Baden-Baden,08211,2020-03-30T19:00:00+02:00,1585587600000,73,0,3,8.24377,48.755271,Sozialministerium Baden Württemberg,https://sozialministerium.baden-wuerttemberg.de/de/gesundheit-pflege/gesundheitsschutz/infektionsschutz-hygiene/informationen-zu-coronavirus/,regio
Baden-Württemberg,Biberach (Kreis),08426,2020-03-30T19:00:00+02:00,1585587600000,216,0,2,9.790192,48.095416,Sozialministerium Baden Württemberg,https://sozialministerium.baden-wuerttemberg.de/de/gesundheit-pflege/gesundheitsschutz/infektionsschutz-hygiene/informationen-zu-coronavirus/,regio
Baden-Württemberg,Böblingen (Kreis),08115,2020-03-30T19:00:00+02:00,1585587600000,413,0,8,9.011235,48.68124,Sozialministerium Baden Württemberg,https://sozialministerium.baden-wuerttemberg.de/de/gesundheit-pflege/gesundheitsschutz/infektionsschutz-hygiene/informationen-zu-coronavirus/,regio
Baden-Württemberg,Bodenseekreis,08435,2020-03-30T19:00:00+02:00,1585587600000,186,0,1,9.315898,47.769623,Sozialministerium Baden Württemberg,https://sozialministerium.baden-wuerttemberg.de/de/gesundheit-pflege/gesundheitsschutz/infektionsschutz-hygiene/informationen-zu-coronavirus/,regio
Baden-Württemberg,Breisgau-Hochschwarzwald (Kreis),08315,2020-03-30T19:00:00+02:00,1585587600000,392,0,7,8.038629,47.955893,Sozialministerium Baden Württemberg,https://sozialministerium.baden-wuerttemberg.de/de/gesundheit-pflege/gesundheitsschutz/infektionsschutz-hygiene/informationen-zu-coronavirus/,regio
Baden-Württemberg,Calw (Kreis),08235,2020-03-30T19:00:00+02:00,1585587600000,295,0,2,8.737756,48.717931,Sozialministerium Baden Württemberg,https://sozialministerium.baden-wuerttemberg.de/de/gesundheit-pflege/gesundheitsschutz/infektionsschutz-hygiene/informationen-zu-coronavirus/,regio
Baden-Württemberg,Emmendingen (Kreis),08316,2020-03-30T19:00:00+02:00,1585587600000,264,0,12,7.855804,48.12525,Sozialministerium Baden Württemberg,https://sozialministerium.baden-wuerttemberg.de/de/gesundheit-pflege/gesundheitsschutz/infektionsschutz-hygiene/informationen-zu-coronavirus/,regio
Baden-Württemberg,Enzkreis,08236,2020-03-30T19:00:00+02:00,1585587600000,115,0,1,8.833684,48.96145,Sozialministerium Baden Württemberg,https://sozialministerium.baden-wuerttemberg.de/de/gesundheit-pflege/gesundheitsschutz/infektionsschutz-hygiene/informationen-zu-coronavirus/,regio
Baden-Württemberg,Esslingen (Kreis),08116,2020-03-30T19:00:00+02:00,1585587600000,761,0,11,9.315444,48.73655,Sozialministerium Baden Württemberg,https://sozialministerium.baden-wuerttemberg.de/de/gesundheit-pflege/gesundheitsschutz/infektionsschutz-hygiene/informationen-zu-coronavirus/,regio
Baden-Württemberg,Freiburg im Breisgau,08311,2020-03-30T19:00:00+02:00,1585587600000,414,0,11,7.834283,47.998194,Sozialministerium Baden Württemberg,https://sozialministerium.baden-wuerttemberg.de/de/gesundheit-pflege/gesundheitsschutz/infektionsschutz-hygiene/informationen-zu-coronavirus/,regio
Baden-Württemberg,Freudenstadt (Kreis),08237,2020-03-30T19:00:00+02:00,1585587600000,154,0,0,8.42493,48.460659,Sozialministerium Baden Württemberg,https://sozialministerium.baden-wuerttemberg.de/de/gesundheit-pflege/gesundheitsschutz/infektionsschutz-hygiene/informationen-zu-coronavirus/,regio
Baden-Württemberg,Göppingen (Kreis),08117,2020-03-30T19:00:00+02:00,1585587600000,361,0,9,9.621245,48.744151,Sozialministerium Baden Württemberg,https://sozialministerium.baden-wuerttemberg.de/de/gesundheit-pflege/gesundheitsschutz/infektionsschutz-hygiene/informationen-zu-coronavirus/,regio
Baden-Württemberg,Heidelberg,08221,2020-03-30T19:00:00+02:00,1585587600000,148,0,0,8.681247,49.412388,Sozialministerium Baden Württemberg,https://sozialministerium.baden-wuerttemberg.de/de/gesundheit-pflege/gesundheitsschutz/infektionsschutz-hygiene/informationen-zu-coronavirus/,regio
Baden-Württemberg,Heidenheim (Kreis),08135,2020-03-30T19:00:00+02:00,1585587600000,160,0,3,10.148996,48.680458,Sozialministerium Baden Württemberg,https://sozialministerium.baden-wuerttemberg.de/de/gesundheit-pflege/gesundheitsschutz/infektionsschutz-hygiene/informationen-zu-coronavirus/,regio
Baden-Württemberg,Heilbronn (Kreis),08125,2020-03-30T19:00:00+02:00,1585587600000,390,0,5,9.273317,49.234789,Sozialministerium Baden Württemberg,https://sozialministerium.baden-wuerttemberg.de/de/gesundheit-pflege/gesundheitsschutz/infektionsschutz-hygiene/informationen-zu-coronavirus/,regio
Baden-Württemberg,Heilbronn,08121,2020-03-30T19:00:00+02:00,1585587600000,147,0,0,9.210942,49.142251,Sozialministerium Baden Württemberg,https://sozialministerium.baden-wuerttemberg.de/de/gesundheit-pflege/gesundheitsschutz/infektionsschutz-hygiene/informationen-zu-coronavirus/,regio
Baden-Württemberg,Hohenlohekreis,08126,2020-03-30T19:00:00+02:00,1585587600000,453,0,9,9.631642,49.282919,Sozialministerium Baden Württemberg,https://sozialministerium.baden-wuerttemberg.de/de/gesundheit-pflege/gesundheitsschutz/infektionsschutz-hygiene/informationen-zu-coronavirus/,regio
Baden-Württemberg,Karlsruhe (Kreis),08215,2020-03-30T19:00:00+02:00,1585587600000,246,0,3,8.549484,48.753432,Sozialministerium Baden Württemberg,https://sozialministerium.baden-wuerttemberg.de/de/gesundheit-pflege/gesundheitsschutz/infektionsschutz-hygiene/informationen-zu-coronavirus/,regio
Baden-Württemberg,Karlsruhe,08212,2020-03-30T19:00:00+02:00,1585587600000,119,0,0,8.368045,49.018533,Sozialministerium Baden Württemberg,https://sozialministerium.baden-wuerttemberg.de/de/gesundheit-pflege/gesundheitsschutz/infektionsschutz-hygiene/informationen-zu-coronavirus/,regio
Baden-Württemberg,Konstanz (Kreis),08335,2020-03-30T19:00:00+02:00,1585587600000,144,0,1,9.170081,47.673531,Sozialministerium Baden Württemberg,https://sozialministerium.baden-wuerttemberg.de/de/gesundheit-pflege/gesundheitsschutz/infektionsschutz-hygiene/informationen-zu-coronavirus/,regio
Baden-Württemberg,Lörrach (Kreis),08336,2020-03-30T19:00:00+02:00,1585587600000,216,0,3,7.770113,47.683567,Sozialministerium Baden Württemberg,https://sozialministerium.baden-wuerttemberg.de/de/gesundheit-pflege/gesundheitsschutz/infektionsschutz-hygiene/informationen-zu-coronavirus/,regio
Baden-Württemberg,Ludwigsburg (Kreis),08118,2020-03-30T19:00:00+02:00,1585587600000,671,0,6,9.195073,48.89912,Sozialministerium Baden Württemberg,https://sozialministerium.baden-wuerttemberg.de/de/gesundheit-pflege/gesundheitsschutz/infektionsschutz-hygiene/informationen-zu-coronavirus/,regio
Baden-Württemberg,Main-Tauber-Kreis,08128,2020-03-30T19:00:00+02:00,1585587600000,112,0,0,9.682984,49.564672,Sozialministerium Baden Württemberg,https://sozialministerium.baden-wuerttemberg.de/de/gesundheit-pflege/gesundheitsschutz/infektionsschutz-hygiene/informationen-zu-coronavirus/,regio
Baden-Württemberg,Mannheim,08222,2020-03-30T19:00:00+02:00,1585587600000,213,0,0,8.492765,49.488789,Sozialministerium Baden Württemberg,https://sozialministerium.baden-wuerttemberg.de/de/gesundheit-pflege/gesundheitsschutz/infektionsschutz-hygiene/informationen-zu-coronavirus/,regio
Baden-Württemberg,Neckar-Odenwald-Kreis,08225,2020-03-30T19:00:00+02:00,1585587600000,86,0,2,9.363575,49.510656,Sozialministerium Baden Württemberg,https://sozialministerium.baden-wuerttemberg.de/de/gesundheit-pflege/gesundheitsschutz/infektionsschutz-hygiene/informationen-zu-coronavirus/,regio
Baden-Württemberg,Ortenaukreis,08317,2020-03-30T19:00:00+02:00,1585587600000,316,0,15,8.022311,48.438867,Sozialministerium Baden Württemberg,https://sozialministerium.baden-wuerttemberg.de/de/gesundheit-pflege/gesundheitsschutz/infektionsschutz-hygiene/informationen-zu-coronavirus/,regio
Baden-Württemberg,Ostalbkreis,08136,2020-03-30T19:00:00+02:00,1585587600000,273,0,0,10.124384,48.905842,Sozialministerium Baden Württemberg,https://sozialministerium.baden-wuerttemberg.de/de/gesundheit-pflege/gesundheitsschutz/infektionsschutz-hygiene/informationen-zu-coronavirus/,regio
Baden-Württemberg,Pforzheim,08231,2020-03-30T19:00:00+02:00,1585587600000,40,0,0,8.688956,48.890549,Sozialministerium Baden Württemberg,https://sozialministerium.baden-wuerttemberg.de/de/gesundheit-pflege/gesundheitsschutz/infektionsschutz-hygiene/informationen-zu-coronavirus/,regio
Baden-Württemberg,Rastatt (Kreis),08216,2020-03-30T19:00:00+02:00,1585587600000,277,0,0,8.209898,48.860842,Sozialministerium Baden Württemberg,https://sozialministerium.baden-wuerttemberg.de/de/gesundheit-pflege/gesundheitsschutz/infektionsschutz-hygiene/informationen-zu-coronavirus/,regio
Baden-Württemberg,Ravensburg (Kreis),08436,2020-03-30T19:00:00+02:00,1585587600000,321,0,0,9.612955,47.783953,Sozialministerium Baden Württemberg,https://sozialministerium.baden-wuerttemberg.de/de/gesundheit-pflege/gesundheitsschutz/infektionsschutz-hygiene/informationen-zu-coronavirus/,regio
Baden-Württemberg,Rems-Murr-Kreis,08119,2020-03-30T19:00:00+02:00,1585587600000,285,0,3,9.504962,48.905691,Sozialministerium Baden Württemberg,https://sozialministerium.baden-wuerttemberg.de/de/gesundheit-pflege/gesundheitsschutz/infektionsschutz-hygiene/informationen-zu-coronavirus/,regio
Baden-Württemberg,Reutlingen (Kreis),08415,2020-03-30T19:00:00+02:00,1585587600000,260,0,6,9.218579,48.494448,Sozialministerium Baden Württemberg,https://sozialministerium.baden-wuerttemberg.de/de/gesundheit-pflege/gesundheitsschutz/infektionsschutz-hygiene/informationen-zu-coronavirus/,regio
Baden-Württemberg,Rhein-Neckar-Kreis,08226,2020-03-30T19:00:00+02:00,1585587600000,564,0,4,8.814371,49.299319,Sozialministerium Baden Württemberg,https://sozialministerium.baden-wuerttemberg.de/de/gesundheit-pflege/gesundheitsschutz/infektionsschutz-hygiene/informationen-zu-coronavirus/,regio
Baden-Württemberg,Rottweil (Kreis),08325,2020-03-30T19:00:00+02:00,1585587600000,109,0,3,8.483465,48.258936,Sozialministerium Baden Württemberg,https://sozialministerium.baden-wuerttemberg.de/de/gesundheit-pflege/gesundheitsschutz/infektionsschutz-hygiene/informationen-zu-coronavirus/,regio
Baden-Württemberg,Schwäbisch Hall (Kreis),08127,2020-03-30T19:00:00+02:00,1585587600000,316,0,9,9.903566,49.145223,Sozialministerium Baden Württemberg,https://sozialministerium.baden-wuerttemberg.de/de/gesundheit-pflege/gesundheitsschutz/infektionsschutz-hygiene/informationen-zu-coronavirus/,regio
Baden-Württemberg,Schwarzwald-Baar-Kreis,08326,2020-03-30T19:00:00+02:00,1585587600000,187,0,2,8.438213,48.029166,Sozialministerium Baden Württemberg,https://sozialministerium.baden-wuerttemberg.de/de/gesundheit-pflege/gesundheitsschutz/infektionsschutz-hygiene/informationen-zu-coronavirus/,regio
Baden-Württemberg,Sigmaringen (Kreis),08437,2020-03-30T19:00:00+02:00,1585587600000,311,0,3,9.222716,48.087764,Sozialministerium Baden Württemberg,https://sozialministerium.baden-wuerttemberg.de/de/gesundheit-pflege/gesundheitsschutz/infektionsschutz-hygiene/informationen-zu-coronavirus/,regio
Baden-Württemberg,Stuttgart,08111,2020-03-30T19:00:00+02:00,1585587600000,705,0,7,9.188624,48.802275,Sozialministerium Baden Württemberg,https://sozialministerium.baden-wuerttemberg.de/de/gesundheit-pflege/gesundheitsschutz/infektionsschutz-hygiene/informationen-zu-coronavirus/,regio
Baden-Württemberg,Tübingen (Kreis),08416,2020-03-30T19:00:00+02:00,1585587600000,636,0,4,9.059097,48.523078,Sozialministerium Baden Württemberg,https://sozialministerium.baden-wuerttemberg.de/de/gesundheit-pflege/gesundheitsschutz/infektionsschutz-hygiene/informationen-zu-coronavirus/,regio
Baden-Württemberg,Tuttlingen (Kreis),08327,2020-03-30T19:00:00+02:00,1585587600000,142,0,3,8.817883,47.984131,Sozialministerium Baden Württemberg,https://sozialministerium.baden-wuerttemberg.de/de/gesundheit-pflege/gesundheitsschutz/infektionsschutz-hygiene/informationen-zu-coronavirus/,regio
Baden-Württemberg,Ulm,08421,2020-03-30T19:00:00+02:00,1585587600000,112,0,0,9.964547,48.396637,Sozialministerium Baden Württemberg,https://sozialministerium.baden-wuerttemberg.de/de/gesundheit-pflege/gesundheitsschutz/infektionsschutz-hygiene/informationen-zu-coronavirus/,regio
Baden-Württemberg,Waldshut (Kreis),08337,2020-03-30T19:00:00+02:00,1585587600000,91,0,1,8.225077,47.619041,Sozialministerium Baden Württemberg,https://sozialministerium.baden-wuerttemberg.de/de/gesundheit-pflege/gesundheitsschutz/infektionsschutz-hygiene/informationen-zu-coronavirus/,regio
Baden-Württemberg,Zollernalbkreis,08417,2020-03-30T19:00:00+02:00,1585587600000,346,0,4,8.932064,48.263589,Sozialministerium Baden Württemberg,https://sozialministerium.baden-wuerttemberg.de/de/gesundheit-pflege/gesundheitsschutz/infektionsschutz-hygiene/informationen-zu-coronavirus/,regio
Baden-Württemberg,nicht zugeordnet,NA,2020-03-30T19:00:00+02:00,1585587600000,0,0,22,null,null,Sozialministerium Baden Württemberg,https://sozialministerium.baden-wuerttemberg.de/de/gesundheit-pflege/gesundheitsschutz/infektionsschutz-hygiene/informationen-zu-coronavirus/,regio
Bayern,Aichach-Friedberg (Kreis),09771,2020-03-31T14:00:00+02:00,1585656000000,120,0,1,11.056124,48.449695,Bayerisches Landesamt für Gesundheit und Lebensmittelsicherheit,https://www.lgl.bayern.de/gesundheit/infektionsschutz/infektionskrankheiten_a_z/coronavirus/karte_coronavirus/index.htm,regio
Bayern,Altötting (Kreis),09171,2020-03-31T14:00:00+02:00,1585656000000,137,3,3,12.675712,48.225938,Bayerisches Landesamt für Gesundheit und Lebensmittelsicherheit,https://www.lgl.bayern.de/gesundheit/infektionsschutz/infektionskrankheiten_a_z/coronavirus/karte_coronavirus/index.htm,regio
Bayern,Amberg,09361,2020-03-31T14:00:00+02:00,1585656000000,18,0,1,11.852173,49.444108,Bayerisches Landesamt für Gesundheit und Lebensmittelsicherheit,https://www.lgl.bayern.de/gesundheit/infektionsschutz/infektionskrankheiten_a_z/coronavirus/karte_coronavirus/index.htm,regio
Bayern,Amberg-Sulzbach (Kreis),09371,2020-03-31T14:00:00+02:00,1585656000000,74,3,3,11.802845,49.559915,Bayerisches Landesamt für Gesundheit und Lebensmittelsicherheit,https://www.lgl.bayern.de/gesundheit/infektionsschutz/infektionskrankheiten_a_z/coronavirus/karte_coronavirus/index.htm,regio
Bayern,Ansbach (Kreis),09571,2020-03-31T14:00:00+02:00,1585656000000,161,0,0,10.571391,49.302883,Bayerisches Landesamt für Gesundheit und Lebensmittelsicherheit,https://www.lgl.bayern.de/gesundheit/infektionsschutz/infektionskrankheiten_a_z/coronavirus/karte_coronavirus/index.htm,regio
Bayern,Ansbach,09561,2020-03-31T14:00:00+02:00,1585656000000,24,0,0,10.571391,49.302883,Bayerisches Landesamt für Gesundheit und Lebensmittelsicherheit,https://www.lgl.bayern.de/gesundheit/infektionsschutz/infektionskrankheiten_a_z/coronavirus/karte_coronavirus/index.htm,regio
Bayern,Aschaffenburg (Kreis),09671,2020-03-31T14:00:00+02:00,1585656000000,129,1,7,9.257926,50.024462,Bayerisches Landesamt für Gesundheit und Lebensmittelsicherheit,https://www.lgl.bayern.de/gesundheit/infektionsschutz/infektionskrankheiten_a_z/coronavirus/karte_coronavirus/index.htm,regio
Bayern,Aschaffenburg,09661,2020-03-31T14:00:00+02:00,1585656000000,48,0,0,9.147466,49.976929,Bayerisches Landesamt für Gesundheit und Lebensmittelsicherheit,https://www.lgl.bayern.de/gesundheit/infektionsschutz/infektionskrankheiten_a_z/coronavirus/karte_coronavirus/index.htm,regio
Bayern,Augsburg (Kreis),09772,2020-03-31T14:00:00+02:00,1585656000000,171,0,0,10.64431,48.317475,Bayerisches Landesamt für Gesundheit und Lebensmittelsicherheit,https://www.lgl.bayern.de/gesundheit/infektionsschutz/infektionskrankheiten_a_z/coronavirus/karte_coronavirus/index.htm,regio
Bayern,Augsburg,09761,2020-03-31T14:00:00+02:00,1585656000000,165,2,2,10.896842,48.369338,Bayerisches Landesamt für Gesundheit und Lebensmittelsicherheit,https://www.lgl.bayern.de/gesundheit/infektionsschutz/infektionskrankheiten_a_z/coronavirus/karte_coronavirus/index.htm,regio
Bayern,Bad Kissingen (Kreis),09672,2020-03-31T14:00:00+02:00,1585656000000,72,0,0,10.073472,50.19261,Bayerisches Landesamt für Gesundheit und Lebensmittelsicherheit,https://www.lgl.bayern.de/gesundheit/infektionsschutz/infektionskrankheiten_a_z/coronavirus/karte_coronavirus/index.htm,regio
Bayern,Bad Tölz (Kreis),09173,2020-03-31T14:00:00+02:00,1585656000000,170,0,0,11.50472,47.75306,Bayerisches Landesamt für Gesundheit und Lebensmittelsicherheit,https://www.lgl.bayern.de/gesundheit/infektionsschutz/infektionskrankheiten_a_z/coronavirus/karte_coronavirus/index.htm,regio
Bayern,Bamberg (Kreis),09471,2020-03-31T14:00:00+02:00,1585656000000,182,1,3,10.6505767,49.8224913,Bayerisches Landesamt für Gesundheit und Lebensmittelsicherheit,https://www.lgl.bayern.de/gesundheit/infektionsschutz/infektionskrankheiten_a_z/coronavirus/karte_coronavirus/index.htm,regio
Bayern,Bamberg,09461,2020-03-31T14:00:00+02:00,1585656000000,70,0,0,10.897137,49.895431,Bayerisches Landesamt für Gesundheit und Lebensmittelsicherheit,https://www.lgl.bayern.de/gesundheit/infektionsschutz/infektionskrankheiten_a_z/coronavirus/karte_coronavirus/index.htm,regio
Bayern,Bayreuth (Kreis),09472,2020-03-31T14:00:00+02:00,1585656000000,108,2,2,11.428407,49.849708,Bayerisches Landesamt für Gesundheit und Lebensmittelsicherheit,https://www.lgl.bayern.de/gesundheit/infektionsschutz/infektionskrankheiten_a_z/coronavirus/karte_coronavirus/index.htm,regio
Bayern,Bayreuth,09462,2020-03-31T14:00:00+02:00,1585656000000,55,0,1,11.584207,49.945412,Bayerisches Landesamt für Gesundheit und Lebensmittelsicherheit,https://www.lgl.bayern.de/gesundheit/infektionsschutz/infektionskrankheiten_a_z/coronavirus/karte_coronavirus/index.htm,regio
Bayern,Berchtesgadener Land (Kreis),09172,2020-03-31T14:00:00+02:00,1585656000000,84,0,0,12.938414,47.607564,Bayerisches Landesamt für Gesundheit und Lebensmittelsicherheit,https://www.lgl.bayern.de/gesundheit/infektionsschutz/infektionskrankheiten_a_z/coronavirus/karte_coronavirus/index.htm,regio
Bayern,Cham (Kreis),09372,2020-03-31T14:00:00+02:00,1585656000000,162,0,0,12.662355,49.221966,Bayerisches Landesamt für Gesundheit und Lebensmittelsicherheit,https://www.lgl.bayern.de/gesundheit/infektionsschutz/infektionskrankheiten_a_z/coronavirus/karte_coronavirus/index.htm,regio
Bayern,Coburg (Kreis),09473,2020-03-31T14:00:00+02:00,1585656000000,50,0,0,10.9005233,50.2276454,Bayerisches Landesamt für Gesundheit und Lebensmittelsicherheit,https://www.lgl.bayern.de/gesundheit/infektionsschutz/infektionskrankheiten_a_z/coronavirus/karte_coronavirus/index.htm,regio
Bayern,Coburg,09463,2020-03-31T14:00:00+02:00,1585656000000,22,0,0,10.905477,50.2603179,Bayerisches Landesamt für Gesundheit und Lebensmittelsicherheit,https://www.lgl.bayern.de/gesundheit/infektionsschutz/infektionskrankheiten_a_z/coronavirus/karte_coronavirus/index.htm,regio
Bayern,Dachau (Kreis),09174,2020-03-31T14:00:00+02:00,1585656000000,205,1,2,11.439408,48.260456,Bayerisches Landesamt für Gesundheit und Lebensmittelsicherheit,https://www.lgl.bayern.de/gesundheit/infektionsschutz/infektionskrankheiten_a_z/coronavirus/karte_coronavirus/index.htm,regio
Bayern,Deggendorf (Kreis),09271,2020-03-31T14:00:00+02:00,1585656000000,120,1,3,12.9562,48.8374,Bayerisches Landesamt für Gesundheit und Lebensmittelsicherheit,https://www.lgl.bayern.de/gesundheit/infektionsschutz/infektionskrankheiten_a_z/coronavirus/karte_coronavirus/index.htm,regio
Bayern,Dillingen a.d. Donau (Kreis),09773,2020-03-31T14:00:00+02:00,1585656000000,48,1,1,10.5325,48.60472,Bayerisches Landesamt für Gesundheit und Lebensmittelsicherheit,https://www.lgl.bayern.de/gesundheit/infektionsschutz/infektionskrankheiten_a_z/coronavirus/karte_coronavirus/index.htm,regio
Bayern,Dingolfing-Landau (Kreis),09279,2020-03-31T14:00:00+02:00,1585656000000,94,0,0,12.615277,48.625473,Bayerisches Landesamt für Gesundheit und Lebensmittelsicherheit,https://www.lgl.bayern.de/gesundheit/infektionsschutz/infektionskrankheiten_a_z/coronavirus/karte_coronavirus/index.htm,regio
Bayern,Donau-Ries (Kreis),09779,2020-03-31T14:00:00+02:00,1585656000000,89,0,2,10.770145,48.779456,Bayerisches Landesamt für Gesundheit und Lebensmittelsicherheit,https://www.lgl.bayern.de/gesundheit/infektionsschutz/infektionskrankheiten_a_z/coronavirus/karte_coronavirus/index.htm,regio
Bayern,Ebersberg (Kreis),09175,2020-03-31T14:00:00+02:00,1585656000000,192,0,0,11.965774,48.075524,Bayerisches Landesamt für Gesundheit und Lebensmittelsicherheit,https://www.lgl.bayern.de/gesundheit/infektionsschutz/infektionskrankheiten_a_z/coronavirus/karte_coronavirus/index.htm,regio
Bayern,Eichstätt (Kreis),09176,2020-03-31T14:00:00+02:00,1585656000000,80,0,1,11.190017,48.890105,Bayerisches Landesamt für Gesundheit und Lebensmittelsicherheit,https://www.lgl.bayern.de/gesundheit/infektionsschutz/infektionskrankheiten_a_z/coronavirus/karte_coronavirus/index.htm,regio
Bayern,Erding (Kreis),09177,2020-03-31T14:00:00+02:00,1585656000000,304,0,1,11.906089,48.306867,Bayerisches Landesamt für Gesundheit und Lebensmittelsicherheit,https://www.lgl.bayern.de/gesundheit/infektionsschutz/infektionskrankheiten_a_z/coronavirus/karte_coronavirus/index.htm,regio
Bayern,Erlangen,09562,2020-03-31T14:00:00+02:00,1585656000000,56,0,1,10.991866,49.582771,Bayerisches Landesamt für Gesundheit und Lebensmittelsicherheit,https://www.lgl.bayern.de/gesundheit/infektionsschutz/infektionskrankheiten_a_z/coronavirus/karte_coronavirus/index.htm,regio
Bayern,Erlangen-Höchstadt,09572,2020-03-31T14:00:00+02:00,1585656000000,66,1,1,10.856919,49.680554,Bayerisches Landesamt für Gesundheit und Lebensmittelsicherheit,https://www.lgl.bayern.de/gesundheit/infektionsschutz/infektionskrankheiten_a_z/coronavirus/karte_coronavirus/index.htm,regio
Bayern,Forchheim (Kreis),09474,2020-03-31T14:00:00+02:00,1585656000000,86,1,1,11.06568,49.721727,Bayerisches Landesamt für Gesundheit und Lebensmittelsicherheit,https://www.lgl.bayern.de/gesundheit/infektionsschutz/infektionskrankheiten_a_z/coronavirus/karte_coronavirus/index.htm,regio
Bayern,Freising (Kreis),09178,2020-03-31T14:00:00+02:00,1585656000000,473,3,6,11.739182,48.40242,Bayerisches Landesamt für Gesundheit und Lebensmittelsicherheit,https://www.lgl.bayern.de/gesundheit/infektionsschutz/infektionskrankheiten_a_z/coronavirus/karte_coronavirus/index.htm,regio
Bayern,Freyung-Grafenau (Kreis),09272,2020-03-31T14:00:00+02:00,1585656000000,89,1,1,13.553457,48.834486,Bayerisches Landesamt für Gesundheit und Lebensmittelsicherheit,https://www.lgl.bayern.de/gesundheit/infektionsschutz/infektionskrankheiten_a_z/coronavirus/karte_coronavirus/index.htm,regio
Bayern,Fürstenfeldbruck (Kreis),09179,2020-03-31T14:00:00+02:00,1585656000000,329,0,2,11.25548,48.181155,Bayerisches Landesamt für Gesundheit und Lebensmittelsicherheit,https://www.lgl.bayern.de/gesundheit/infektionsschutz/infektionskrankheiten_a_z/coronavirus/karte_coronavirus/index.htm,regio
Bayern,Fürth (Kreis),09573,2020-03-31T14:00:00+02:00,1585656000000,128,2,3,10.850179,49.42164,Bayerisches Landesamt für Gesundheit und Lebensmittelsicherheit,https://www.lgl.bayern.de/gesundheit/infektionsschutz/infektionskrankheiten_a_z/coronavirus/karte_coronavirus/index.htm,regio
Bayern,Fürth,09563,2020-03-31T14:00:00+02:00,1585656000000,76,0,1,10.981111,49.480351,Bayerisches Landesamt für Gesundheit und Lebensmittelsicherheit,https://www.lgl.bayern.de/gesundheit/infektionsschutz/infektionskrankheiten_a_z/coronavirus/karte_coronavirus/index.htm,regio
Bayern,Garmisch-Partenkirchen (Kreis),09180,2020-03-31T14:00:00+02:00,1585656000000,114,0,0,11.104571,47.492674,Bayerisches Landesamt für Gesundheit und Lebensmittelsicherheit,https://www.lgl.bayern.de/gesundheit/infektionsschutz/infektionskrankheiten_a_z/coronavirus/karte_coronavirus/index.htm,regio
Bayern,Günzburg (Kreis),09774,2020-03-31T14:00:00+02:00,1585656000000,101,0,0,10.284105,48.455294,Bayerisches Landesamt für Gesundheit und Lebensmittelsicherheit,https://www.lgl.bayern.de/gesundheit/infektionsschutz/infektionskrankheiten_a_z/coronavirus/karte_coronavirus/index.htm,regio
Bayern,Haßberge (Kreis),09674,2020-03-31T14:00:00+02:00,1585656000000,60,0,1,10.602664,50.062257,Bayerisches Landesamt für Gesundheit und Lebensmittelsicherheit,https://www.lgl.bayern.de/gesundheit/infektionsschutz/infektionskrankheiten_a_z/coronavirus/karte_coronavirus/index.htm,regio
Bayern,Hof (Kreis),09475,2020-03-31T14:00:00+02:00,1585656000000,112,0,0,11.7673635,50.2925404,Bayerisches Landesamt für Gesundheit und Lebensmittelsicherheit,https://www.lgl.bayern.de/gesundheit/infektionsschutz/infektionskrankheiten_a_z/coronavirus/karte_coronavirus/index.htm,regio
Bayern,Hof,09464,2020-03-31T14:00:00+02:00,1585656000000,39,0,0,11.918817,50.316424,Bayerisches Landesamt für Gesundheit und Lebensmittelsicherheit,https://www.lgl.bayern.de/gesundheit/infektionsschutz/infektionskrankheiten_a_z/coronavirus/karte_coronavirus/index.htm,regio
Bayern,Ingolstadt,09161,2020-03-31T14:00:00+02:00,1585656000000,74,0,0,11.438832,48.765164,Bayerisches Landesamt für Gesundheit und Lebensmittelsicherheit,https://www.lgl.bayern.de/gesundheit/infektionsschutz/infektionskrankheiten_a_z/coronavirus/karte_coronavirus/index.htm,regio
Bayern,Kaufbeuren,09762,2020-03-31T14:00:00+02:00,1585656000000,32,0,0,10.625408,47.882969,Bayerisches Landesamt für Gesundheit und Lebensmittelsicherheit,https://www.lgl.bayern.de/gesundheit/infektionsschutz/infektionskrankheiten_a_z/coronavirus/karte_coronavirus/index.htm,regio
Bayern,Kelheim (Kreis),09273,2020-03-31T14:00:00+02:00,1585656000000,132,2,3,11.875504,48.919978,Bayerisches Landesamt für Gesundheit und Lebensmittelsicherheit,https://www.lgl.bayern.de/gesundheit/infektionsschutz/infektionskrankheiten_a_z/coronavirus/karte_coronavirus/index.htm,regio
Bayern,Kempten,09763,2020-03-31T14:00:00+02:00,1585656000000,42,1,2,10.2353175,47.7362469,Bayerisches Landesamt für Gesundheit und Lebensmittelsicherheit,https://www.lgl.bayern.de/gesundheit/infektionsschutz/infektionskrankheiten_a_z/coronavirus/karte_coronavirus/index.htm,regio
Bayern,Kitzingen (Kreis),09675,2020-03-31T14:00:00+02:00,1585656000000,29,0,0,10.162399,49.737155,Bayerisches Landesamt für Gesundheit und Lebensmittelsicherheit,https://www.lgl.bayern.de/gesundheit/infektionsschutz/infektionskrankheiten_a_z/coronavirus/karte_coronavirus/index.htm,regio
Bayern,Kronach (Kreis),09476,2020-03-31T14:00:00+02:00,1585656000000,50,0,0,11.329198,50.238086,Bayerisches Landesamt für Gesundheit und Lebensmittelsicherheit,https://www.lgl.bayern.de/gesundheit/infektionsschutz/infektionskrankheiten_a_z/coronavirus/karte_coronavirus/index.htm,regio
Bayern,Kulmbach (Kreis),09477,2020-03-31T14:00:00+02:00,1585656000000,69,0,1,11.448023,50.104806,Bayerisches Landesamt für Gesundheit und Lebensmittelsicherheit,https://www.lgl.bayern.de/gesundheit/infektionsschutz/infektionskrankheiten_a_z/coronavirus/karte_coronavirus/index.htm,regio
Bayern,Landsberg am Lech (Kreis),09181,2020-03-31T14:00:00+02:00,1585656000000,138,2,3,10.866652,48.051822,Bayerisches Landesamt für Gesundheit und Lebensmittelsicherheit,https://www.lgl.bayern.de/gesundheit/infektionsschutz/infektionskrankheiten_a_z/coronavirus/karte_coronavirus/index.htm,regio
Bayern,Landshut (Kreis),09274,2020-03-31T14:00:00+02:00,1585656000000,254,1,5,12.148372,48.533862,Bayerisches Landesamt für Gesundheit und Lebensmittelsicherheit,https://www.lgl.bayern.de/gesundheit/infektionsschutz/infektionskrankheiten_a_z/coronavirus/karte_coronavirus/index.htm,regio
Bayern,Landshut,09261,2020-03-31T14:00:00+02:00,1585656000000,98,0,3,12.148372,48.533862,Bayerisches Landesamt für Gesundheit und Lebensmittelsicherheit,https://www.lgl.bayern.de/gesundheit/infektionsschutz/infektionskrankheiten_a_z/coronavirus/karte_coronavirus/index.htm,regio
Bayern,Lichtenfels (Kreis),09478,2020-03-31T14:00:00+02:00,1585656000000,81,0,1,11.064719,50.144572,Bayerisches Landesamt für Gesundheit und Lebensmittelsicherheit,https://www.lgl.bayern.de/gesundheit/infektionsschutz/infektionskrankheiten_a_z/coronavirus/karte_coronavirus/index.htm,regio
Bayern,Lindau/Bodensee (Kreis),09776,2020-03-31T14:00:00+02:00,1585656000000,128,1,1,9.88139,47.61806,Bayerisches Landesamt für Gesundheit und Lebensmittelsicherheit,https://www.lgl.bayern.de/gesundheit/infektionsschutz/infektionskrankheiten_a_z/coronavirus/karte_coronavirus/index.htm,regio
Bayern,Main-Spessart (Kreis),09677,2020-03-31T14:00:00+02:00,1585656000000,64,1,1,9.657584,49.999333,Bayerisches Landesamt für Gesundheit und Lebensmittelsicherheit,https://www.lgl.bayern.de/gesundheit/infektionsschutz/infektionskrankheiten_a_z/coronavirus/karte_coronavirus/index.htm,regio
Bayern,Memmingen,09764,2020-03-31T14:00:00+02:00,1585656000000,29,0,0,10.176935,47.988092,Bayerisches Landesamt für Gesundheit und Lebensmittelsicherheit,https://www.lgl.bayern.de/gesundheit/infektionsschutz/infektionskrankheiten_a_z/coronavirus/karte_coronavirus/index.htm,regio
Bayern,Miesbach (Kreis),09182,2020-03-31T14:00:00+02:00,1585656000000,297,0,0,11.83299,47.789542,Bayerisches Landesamt für Gesundheit und Lebensmittelsicherheit,https://www.lgl.bayern.de/gesundheit/infektionsschutz/infektionskrankheiten_a_z/coronavirus/karte_coronavirus/index.htm,regio
Bayern,Miltenberg (Kreis),09676,2020-03-31T14:00:00+02:00,1585656000000,97,0,0,9.250751,49.706089,Bayerisches Landesamt für Gesundheit und Lebensmittelsicherheit,https://www.lgl.bayern.de/gesundheit/infektionsschutz/infektionskrankheiten_a_z/coronavirus/karte_coronavirus/index.htm,regio
Bayern,Mühldorf a.Inn (Kreis),09183,2020-03-31T14:00:00+02:00,1585656000000,155,1,2,12.5215,48.25035,Bayerisches Landesamt für Gesundheit und Lebensmittelsicherheit,https://www.lgl.bayern.de/gesundheit/infektionsschutz/infektionskrankheiten_a_z/coronavirus/karte_coronavirus/index.htm,regio
Bayern,München (Kreis),09184,2020-03-31T14:00:00+02:00,1585656000000,604,1,6,11.6398996,48.0061576,Bayerisches Landesamt für Gesundheit und Lebensmittelsicherheit,https://www.lgl.bayern.de/gesundheit/infektionsschutz/infektionskrankheiten_a_z/coronavirus/karte_coronavirus/index.htm,regio
Bayern,München,09162,2020-03-31T14:00:00+02:00,1585656000000,2459,3,5,11.544467,48.152126,Bayerisches Landesamt für Gesundheit und Lebensmittelsicherheit,https://www.lgl.bayern.de/gesundheit/infektionsschutz/infektionskrankheiten_a_z/coronavirus/karte_coronavirus/index.htm,regio
Bayern,Neu-Ulm (Kreis),09775,2020-03-31T14:00:00+02:00,1585656000000,138,1,1,10.026622,48.393453,Bayerisches Landesamt für Gesundheit und Lebensmittelsicherheit,https://www.lgl.bayern.de/gesundheit/infektionsschutz/infektionskrankheiten_a_z/coronavirus/karte_coronavirus/index.htm,regio
Bayern,Neuburg-Schrobenhausen (Kreis),09185,2020-03-31T14:00:00+02:00,1585656000000,83,0,0,11.235755,48.66636,Bayerisches Landesamt für Gesundheit und Lebensmittelsicherheit,https://www.lgl.bayern.de/gesundheit/infektionsschutz/infektionskrankheiten_a_z/coronavirus/karte_coronavirus/index.htm,regio
Bayern,Neumarkt i.d.Opf. (Kreis),09373,2020-03-31T14:00:00+02:00,1585656000000,87,1,2,11.464881,49.281837,Bayerisches Landesamt für Gesundheit und Lebensmittelsicherheit,https://www.lgl.bayern.de/gesundheit/infektionsschutz/infektionskrankheiten_a_z/coronavirus/karte_coronavirus/index.htm,regio
Bayern,Neustadt a.d. Aisch-Bad Windsheim,09575,2020-03-31T14:00:00+02:00,1585656000000,56,0,0,10.510152,49.579337,Bayerisches Landesamt für Gesundheit und Lebensmittelsicherheit,https://www.lgl.bayern.de/gesundheit/infektionsschutz/infektionskrankheiten_a_z/coronavirus/karte_coronavirus/index.htm,regio
Bayern,Neustadt a.d. Waldnaab,09374,2020-03-31T14:00:00+02:00,1585656000000,212,3,7,12.172036,49.730675,Bayerisches Landesamt für Gesundheit und Lebensmittelsicherheit,https://www.lgl.bayern.de/gesundheit/infektionsschutz/infektionskrankheiten_a_z/coronavirus/karte_coronavirus/index.htm,regio
Bayern,Nürnberg,09564,2020-03-31T14:00:00+02:00,1585656000000,259,0,0,11.07977,49.446007,Bayerisches Landesamt für Gesundheit und Lebensmittelsicherheit,https://www.lgl.bayern.de/gesundheit/infektionsschutz/infektionskrankheiten_a_z/coronavirus/karte_coronavirus/index.htm,regio
Bayern,Nürnberger Land (Kreis),09574,2020-03-31T14:00:00+02:00,1585656000000,174,3,6,11.365566,49.496595,Bayerisches Landesamt für Gesundheit und Lebensmittelsicherheit,https://www.lgl.bayern.de/gesundheit/infektionsschutz/infektionskrankheiten_a_z/coronavirus/karte_coronavirus/index.htm,regio
Bayern,Oberallgäu (Kreis),09780,2020-03-31T14:00:00+02:00,1585656000000,96,1,3,10.256626,47.54541,Bayerisches Landesamt für Gesundheit und Lebensmittelsicherheit,https://www.lgl.bayern.de/gesundheit/infektionsschutz/infektionskrankheiten_a_z/coronavirus/karte_coronavirus/index.htm,regio
Bayern,Ostallgäu (Kreis),09777,2020-03-31T14:00:00+02:00,1585656000000,156,2,5,10.607938,47.738881,Bayerisches Landesamt für Gesundheit und Lebensmittelsicherheit,https://www.lgl.bayern.de/gesundheit/infektionsschutz/infektionskrankheiten_a_z/coronavirus/karte_coronavirus/index.htm,regio
Bayern,Passau (Kreis),09275,2020-03-31T14:00:00+02:00,1585656000000,120,0,2,13.1489972,48.5565793,Bayerisches Landesamt für Gesundheit und Lebensmittelsicherheit,https://www.lgl.bayern.de/gesundheit/infektionsschutz/infektionskrankheiten_a_z/coronavirus/karte_coronavirus/index.htm,regio
Bayern,Passau,09262,2020-03-31T14:00:00+02:00,1585656000000,40,0,1,13.437462,48.571465,Bayerisches Landesamt für Gesundheit und Lebensmittelsicherheit,https://www.lgl.bayern.de/gesundheit/infektionsschutz/infektionskrankheiten_a_z/coronavirus/karte_coronavirus/index.htm,regio
Bayern,Pfaffenhofen a.d.Ilm (Kreis),09186,2020-03-31T14:00:00+02:00,1585656000000,115,0,0,11.591666,48.530854,Bayerisches Landesamt für Gesundheit und Lebensmittelsicherheit,https://www.lgl.bayern.de/gesundheit/infektionsschutz/infektionskrankheiten_a_z/coronavirus/karte_coronavirus/index.htm,regio
Bayern,Regen (Kreis),09276,2020-03-31T14:00:00+02:00,1585656000000,43,0,0,13.129918,48.976328,Bayerisches Landesamt für Gesundheit und Lebensmittelsicherheit,https://www.lgl.bayern.de/gesundheit/infektionsschutz/infektionskrankheiten_a_z/coronavirus/karte_coronavirus/index.htm,regio
Bayern,Regensburg (Kreis),09375,2020-03-31T14:00:00+02:00,1585656000000,162,0,0,12.2264066,48.9461512,Bayerisches Landesamt für Gesundheit und Lebensmittelsicherheit,https://www.lgl.bayern.de/gesundheit/infektionsschutz/infektionskrankheiten_a_z/coronavirus/karte_coronavirus/index.htm,regio
Bayern,Regensburg,09362,2020-03-31T14:00:00+02:00,1585656000000,166,1,1,12.114729,49.021388,Bayerisches Landesamt für Gesundheit und Lebensmittelsicherheit,https://www.lgl.bayern.de/gesundheit/infektionsschutz/infektionskrankheiten_a_z/coronavirus/karte_coronavirus/index.htm,regio
Bayern,Rhön-Grabfeld (Kreis),09673,2020-03-31T14:00:00+02:00,1585656000000,39,0,0,10.220966,50.402013,Bayerisches Landesamt für Gesundheit und Lebensmittelsicherheit,https://www.lgl.bayern.de/gesundheit/infektionsschutz/infektionskrankheiten_a_z/coronavirus/karte_coronavirus/index.htm,regio
Bayern,Rosenheim (Kreis),09187,2020-03-31T14:00:00+02:00,1585656000000,748,6,12,12.2247633,47.8606066,Bayerisches Landesamt für Gesundheit und Lebensmittelsicherheit,https://www.lgl.bayern.de/gesundheit/infektionsschutz/infektionskrankheiten_a_z/coronavirus/karte_coronavirus/index.htm,regio
Bayern,Rosenheim,09163,2020-03-31T14:00:00+02:00,1585656000000,127,0,0,12.116299,47.853616,Bayerisches Landesamt für Gesundheit und Lebensmittelsicherheit,https://www.lgl.bayern.de/gesundheit/infektionsschutz/infektionskrankheiten_a_z/coronavirus/karte_coronavirus/index.htm,regio
Bayern,Roth (Kreis),09576,2020-03-31T14:00:00+02:00,1585656000000,90,0,1,11.095246,49.247733,Bayerisches Landesamt für Gesundheit und Lebensmittelsicherheit,https://www.lgl.bayern.de/gesundheit/infektionsschutz/infektionskrankheiten_a_z/coronavirus/karte_coronavirus/index.htm,regio
Bayern,Rottal-Inn (Kreis),09277,2020-03-31T14:00:00+02:00,1585656000000,248,0,0,12.897029,48.432048,Bayerisches Landesamt für Gesundheit und Lebensmittelsicherheit,https://www.lgl.bayern.de/gesundheit/infektionsschutz/infektionskrankheiten_a_z/coronavirus/karte_coronavirus/index.htm,regio
Bayern,Schwabach,09565,2020-03-31T14:00:00+02:00,1585656000000,26,0,0,11.029777,49.327516,Bayerisches Landesamt für Gesundheit und Lebensmittelsicherheit,https://www.lgl.bayern.de/gesundheit/infektionsschutz/infektionskrankheiten_a_z/coronavirus/karte_coronavirus/index.htm,regio
Bayern,Schwandorf (Kreis),09376,2020-03-31T14:00:00+02:00,1585656000000,117,0,1,12.104752,49.318502,Bayerisches Landesamt für Gesundheit und Lebensmittelsicherheit,https://www.lgl.bayern.de/gesundheit/infektionsschutz/infektionskrankheiten_a_z/coronavirus/karte_coronavirus/index.htm,regio
Bayern,Schweinfurt (Kreis),09678,2020-03-31T14:00:00+02:00,1585656000000,115,0,0,10.2449093,49.994578,Bayerisches Landesamt für Gesundheit und Lebensmittelsicherheit,https://www.lgl.bayern.de/gesundheit/infektionsschutz/infektionskrankheiten_a_z/coronavirus/karte_coronavirus/index.htm,regio
Bayern,Schweinfurt,09662,2020-03-31T14:00:00+02:00,1585656000000,50,0,4,10.223773,50.045714,Bayerisches Landesamt für Gesundheit und Lebensmittelsicherheit,https://www.lgl.bayern.de/gesundheit/infektionsschutz/infektionskrankheiten_a_z/coronavirus/karte_coronavirus/index.htm,regio
Bayern,Starnberg (Kreis),09188,2020-03-31T14:00:00+02:00,1585656000000,274,1,1,11.336127,48.003568,Bayerisches Landesamt für Gesundheit und Lebensmittelsicherheit,https://www.lgl.bayern.de/gesundheit/infektionsschutz/infektionskrankheiten_a_z/coronavirus/karte_coronavirus/index.htm,regio
Bayern,Straubing,09263,2020-03-31T14:00:00+02:00,1585656000000,86,0,1,12.585256,48.877309,Bayerisches Landesamt für Gesundheit und Lebensmittelsicherheit,https://www.lgl.bayern.de/gesundheit/infektionsschutz/infektionskrankheiten_a_z/coronavirus/karte_coronavirus/index.htm,regio
Bayern,Straubing-Bogen (Kreis),09278,2020-03-31T14:00:00+02:00,1585656000000,97,0,2,12.63983,49.004191,Bayerisches Landesamt für Gesundheit und Lebensmittelsicherheit,https://www.lgl.bayern.de/gesundheit/infektionsschutz/infektionskrankheiten_a_z/coronavirus/karte_coronavirus/index.htm,regio
Bayern,Tirschenreuth (Kreis),09377,2020-03-31T14:00:00+02:00,1585656000000,468,9,25,12.330616,49.883388,Bayerisches Landesamt für Gesundheit und Lebensmittelsicherheit,https://www.lgl.bayern.de/gesundheit/infektionsschutz/infektionskrankheiten_a_z/coronavirus/karte_coronavirus/index.htm,regio
Bayern,Traunstein (Kreis),09189,2020-03-31T14:00:00+02:00,1585656000000,251,3,3,12.637012,47.868936,Bayerisches Landesamt für Gesundheit und Lebensmittelsicherheit,https://www.lgl.bayern.de/gesundheit/infektionsschutz/infektionskrankheiten_a_z/coronavirus/karte_coronavirus/index.htm,regio
Bayern,Unterallgäu (Kreis),09778,2020-03-31T14:00:00+02:00,1585656000000,123,2,2,10.391476,48.041191,Bayerisches Landesamt für Gesundheit und Lebensmittelsicherheit,https://www.lgl.bayern.de/gesundheit/infektionsschutz/infektionskrankheiten_a_z/coronavirus/karte_coronavirus/index.htm,regio
Bayern,Weiden,09363,2020-03-31T14:00:00+02:00,1585656000000,70,0,2,6.837747,50.938174,Bayerisches Landesamt für Gesundheit und Lebensmittelsicherheit,https://www.lgl.bayern.de/gesundheit/infektionsschutz/infektionskrankheiten_a_z/coronavirus/karte_coronavirus/index.htm,regio
Bayern,Weilheim-Schongau (Kreis),09190,2020-03-31T14:00:00+02:00,1585656000000,193,1,1,11.072725,47.814244,Bayerisches Landesamt für Gesundheit und Lebensmittelsicherheit,https://www.lgl.bayern.de/gesundheit/infektionsschutz/infektionskrankheiten_a_z/coronavirus/karte_coronavirus/index.htm,regio
Bayern,Weißenburg-Gunzenhausen (Kreis),09577,2020-03-31T14:00:00+02:00,1585656000000,94,1,1,10.945252,49.006812,Bayerisches Landesamt für Gesundheit und Lebensmittelsicherheit,https://www.lgl.bayern.de/gesundheit/infektionsschutz/infektionskrankheiten_a_z/coronavirus/karte_coronavirus/index.htm,regio
Bayern,Wunsiedel i.Fichtelgebirge (Kreis),09479,2020-03-31T14:00:00+02:00,1585656000000,200,2,6,12.04833,50.09722,Bayerisches Landesamt für Gesundheit und Lebensmittelsicherheit,https://www.lgl.bayern.de/gesundheit/infektionsschutz/infektionskrankheiten_a_z/coronavirus/karte_coronavirus/index.htm,regio
Bayern,Würzburg (Kreis),09679,2020-03-31T14:00:00+02:00,1585656000000,209,0,0,9.8627734,49.6445889,Bayerisches Landesamt für Gesundheit und Lebensmittelsicherheit,https://www.lgl.bayern.de/gesundheit/infektionsschutz/infektionskrankheiten_a_z/coronavirus/karte_coronavirus/index.htm,regio
Bayern,Würzburg,09663,2020-03-31T14:00:00+02:00,1585656000000,258,12,18,9.941828,49.784984,Bayerisches Landesamt für Gesundheit und Lebensmittelsicherheit,https://www.lgl.bayern.de/gesundheit/infektionsschutz/infektionskrankheiten_a_z/coronavirus/karte_coronavirus/index.htm,regio
Bayern,nicht zugeordnet,NA,2020-03-31T14:00:00+02:00,1585656000000,0,0,0,null,null,Bayerisches Landesamt für Gesundheit und Lebensmittelsicherheit,https://www.lgl.bayern.de/gesundheit/infektionsschutz/infektionskrankheiten_a_z/coronavirus/karte_coronavirus/index.htm,regio
Berlin,Charlottenburg-Wilmersdorf,11004,2020-03-30T18:00:00+02:00,1585584000000,302,116,1,13.270242,52.49832,LaGeSo Berlin,https://www.berlin.de/corona/fallstatistik/,regio
Berlin,Friedrichshain-Kreuzberg,11002,2020-03-30T18:00:00+02:00,1585584000000,270,106,2,13.443621,52.511565,LaGeSo Berlin,https://www.berlin.de/corona/fallstatistik/,regio
Berlin,Lichtenberg,11011,2020-03-30T18:00:00+02:00,1585584000000,109,26,2,13.4959,52.527931,LaGeSo Berlin,https://www.berlin.de/corona/fallstatistik/,regio
Berlin,Marzahn-Hellersdorf,11010,2020-03-30T18:00:00+02:00,1585584000000,82,36,0,13.574036,52.515826,LaGeSo Berlin,https://www.berlin.de/corona/fallstatistik/,regio
Berlin,Mitte,11001,2020-03-30T18:00:00+02:00,1585584000000,410,186,0,13.394087,52.520891,LaGeSo Berlin,https://www.berlin.de/corona/fallstatistik/,regio
Berlin,Neukölln,11008,2020-03-30T18:00:00+02:00,1585584000000,265,128,1,13.443664,52.440484,LaGeSo Berlin,https://www.berlin.de/corona/fallstatistik/,regio
Berlin,Pankow,11003,2020-03-30T18:00:00+02:00,1585584000000,263,116,0,13.434299,52.590515,LaGeSo Berlin,https://www.berlin.de/corona/fallstatistik/,regio
Berlin,Reinickendorf,11012,2020-03-30T18:00:00+02:00,1585584000000,172,81,3,13.284953,52.591439,LaGeSo Berlin,https://www.berlin.de/corona/fallstatistik/,regio
Berlin,Spandau,11005,2020-03-30T18:00:00+02:00,1585584000000,97,42,1,13.186056,52.544354,LaGeSo Berlin,https://www.berlin.de/corona/fallstatistik/,regio
Berlin,Steglitz-Zehlendorf,11006,2020-03-30T18:00:00+02:00,1585584000000,206,52,0,13.272296,52.436132,LaGeSo Berlin,https://www.berlin.de/corona/fallstatistik/,regio
Berlin,Tempelhof-Schöneberg,11007,2020-03-30T18:00:00+02:00,1585584000000,257,107,3,13.388943,52.456016,LaGeSo Berlin,https://www.berlin.de/corona/fallstatistik/,regio
Berlin,Treptow-Köpenick,11009,2020-03-30T18:00:00+02:00,1585584000000,148,59,0,13.624591,52.424291,LaGeSo Berlin,https://www.berlin.de/corona/fallstatistik/,regio
Berlin,nicht zugeordnet,NA,2020-03-30T18:00:00+02:00,1585584000000,0,0,0,null,null,LaGeSo Berlin,https://www.berlin.de/corona/fallstatistik/,regio
Brandenburg,Barnim (Kreis),12060,2020-03-31T11:00:00+02:00,1585645200000,74,1,0,13.678028,52.860105,"Ministerium für Soziales, Gesundheit, Integration und Verbraucherschutz des Landes Brandenburg",https://msgiv.brandenburg.de/msgiv/de/presse/pressemitteilungen/,regio
Brandenburg,Brandenburg a. d. Havel,12051,2020-03-31T11:00:00+02:00,1585645200000,17,0,0,12.504126,52.397855,"Ministerium für Soziales, Gesundheit, Integration und Verbraucherschutz des Landes Brandenburg",https://msgiv.brandenburg.de/msgiv/de/presse/pressemitteilungen/,regio
Brandenburg,Cottbus,12052,2020-03-31T11:00:00+02:00,1585645200000,31,0,0,14.326664,51.762889,"Ministerium für Soziales, Gesundheit, Integration und Verbraucherschutz des Landes Brandenburg",https://msgiv.brandenburg.de/msgiv/de/presse/pressemitteilungen/,regio
Brandenburg,Dahme-Spreewald (Kreis),12061,2020-03-31T11:00:00+02:00,1585645200000,81,0,0,13.784156,52.004707,"Ministerium für Soziales, Gesundheit, Integration und Verbraucherschutz des Landes Brandenburg",https://msgiv.brandenburg.de/msgiv/de/presse/pressemitteilungen/,regio
Brandenburg,Elbe-Elster (Kreis),12062,2020-03-31T11:00:00+02:00,1585645200000,35,0,0,13.453096,51.611451,"Ministerium für Soziales, Gesundheit, Integration und Verbraucherschutz des Landes Brandenburg",https://msgiv.brandenburg.de/msgiv/de/presse/pressemitteilungen/,regio
Brandenburg,Frankfurt (Oder),12053,2020-03-31T11:00:00+02:00,1585645200000,6,0,0,14.5539,52.3475,"Ministerium für Soziales, Gesundheit, Integration und Verbraucherschutz des Landes Brandenburg",https://msgiv.brandenburg.de/msgiv/de/presse/pressemitteilungen/,regio
Brandenburg,Havelland (Kreis),12063,2020-03-31T11:00:00+02:00,1585645200000,51,0,0,12.618459,52.665495,"Ministerium für Soziales, Gesundheit, Integration und Verbraucherschutz des Landes Brandenburg",https://msgiv.brandenburg.de/msgiv/de/presse/pressemitteilungen/,regio
Brandenburg,Märkisch-Oderland (Kreis),12064,2020-03-31T11:00:00+02:00,1585645200000,80,0,0,14.052991,52.666139,"Ministerium für Soziales, Gesundheit, Integration und Verbraucherschutz des Landes Brandenburg",https://msgiv.brandenburg.de/msgiv/de/presse/pressemitteilungen/,regio
Brandenburg,Oberhavel (Kreis),12065,2020-03-31T11:00:00+02:00,1585645200000,101,0,1,13.22903,52.858801,"Ministerium für Soziales, Gesundheit, Integration und Verbraucherschutz des Landes Brandenburg",https://msgiv.brandenburg.de/msgiv/de/presse/pressemitteilungen/,regio
Brandenburg,Oberspreewald-Lausitz (Kreis),12066,2020-03-31T11:00:00+02:00,1585645200000,18,0,0,13.996808,51.594291,"Ministerium für Soziales, Gesundheit, Integration und Verbraucherschutz des Landes Brandenburg",https://msgiv.brandenburg.de/msgiv/de/presse/pressemitteilungen/,regio
Brandenburg,Oder-Spree (Kreis),12067,2020-03-31T11:00:00+02:00,1585645200000,75,0,0,14.17349,52.263522,"Ministerium für Soziales, Gesundheit, Integration und Verbraucherschutz des Landes Brandenburg",https://msgiv.brandenburg.de/msgiv/de/presse/pressemitteilungen/,regio
Brandenburg,Ostprignitz-Ruppin,12068,2020-03-31T11:00:00+02:00,1585645200000,15,0,0,12.642896,53.006512,"Ministerium für Soziales, Gesundheit, Integration und Verbraucherschutz des Landes Brandenburg",https://msgiv.brandenburg.de/msgiv/de/presse/pressemitteilungen/,regio
Brandenburg,Potsdam,12054,2020-03-31T11:00:00+02:00,1585645200000,139,0,6,13.030564,52.414098,"Ministerium für Soziales, Gesundheit, Integration und Verbraucherschutz des Landes Brandenburg",https://msgiv.brandenburg.de/msgiv/de/presse/pressemitteilungen/,regio
Brandenburg,Potsdam-Mittelmark (Kreis),12069,2020-03-31T11:00:00+02:00,1585645200000,98,0,0,12.74327,52.207417,"Ministerium für Soziales, Gesundheit, Integration und Verbraucherschutz des Landes Brandenburg",https://msgiv.brandenburg.de/msgiv/de/presse/pressemitteilungen/,regio
Brandenburg,Prignitz (Kreis),12070,2020-03-31T11:00:00+02:00,1585645200000,9,0,0,12.018695,53.08569,"Ministerium für Soziales, Gesundheit, Integration und Verbraucherschutz des Landes Brandenburg",https://msgiv.brandenburg.de/msgiv/de/presse/pressemitteilungen/,regio
Brandenburg,Spree-Neiße (Kreis),12071,2020-03-31T11:00:00+02:00,1585645200000,43,0,0,14.518025,51.907682,"Ministerium für Soziales, Gesundheit, Integration und Verbraucherschutz des Landes Brandenburg",https://msgiv.brandenburg.de/msgiv/de/presse/pressemitteilungen/,regio
Brandenburg,Teltow-Fläming (Kreis),12072,2020-03-31T11:00:00+02:00,1585645200000,50,0,0,13.24611,52.076888,"Ministerium für Soziales, Gesundheit, Integration und Verbraucherschutz des Landes Brandenburg",https://msgiv.brandenburg.de/msgiv/de/presse/pressemitteilungen/,regio
Brandenburg,Uckermark (Kreis),12073,2020-03-31T11:00:00+02:00,1585645200000,10,0,0,13.769829,53.260762,"Ministerium für Soziales, Gesundheit, Integration und Verbraucherschutz des Landes Brandenburg",https://msgiv.brandenburg.de/msgiv/de/presse/pressemitteilungen/,regio
Brandenburg,nicht zugeordnet,NA,2020-03-31T11:00:00+02:00,1585645200000,0,0,0,null,null,"Ministerium für Soziales, Gesundheit, Integration und Verbraucherschutz des Landes Brandenburg",https://msgiv.brandenburg.de/msgiv/de/presse/pressemitteilungen/,regio
Bremen,Bremen,04011,2020-03-30T18:00:00+02:00,1585584000000,277,62,4,8.852958,53.09026,"Senatorin für Gesundheit, Frauen und Verbraucherschutz",https://www.gesundheit.bremen.de/,regio
Bremen,Bremerhaven,04012,2020-03-30T18:00:00+02:00,1585584000000,20,9,0,8.589778,53.553611,"Senatorin für Gesundheit, Frauen und Verbraucherschutz",https://www.gesundheit.bremen.de/,regio
Bremen,nicht zugeordnet,NA,2020-03-30T18:00:00+02:00,1585584000000,0,0,0,null,null,"Senatorin für Gesundheit, Frauen und Verbraucherschutz",https://www.gesundheit.bremen.de/,regio
Hessen,Bergstraße (Kreis),06431,2020-03-30T14:00:00+02:00,1585569600000,152,0,1,8.523546,49.650137,Hessisches Ministerium für Soziales und Integration,https://soziales.hessen.de/gesundheit/infektionsschutz/coronavirus-sars-cov-2/taegliche-uebersicht-der-bestaetigten-sars-cov-2-faelle-hessen,regio
Hessen,Darmstadt-Dieburg (Kreis),06432,2020-03-30T14:00:00+02:00,1585569600000,161,0,1,8.813822,49.856891,Hessisches Ministerium für Soziales und Integration,https://soziales.hessen.de/gesundheit/infektionsschutz/coronavirus-sars-cov-2/taegliche-uebersicht-der-bestaetigten-sars-cov-2-faelle-hessen,regio
Hessen,Fulda (Kreis),06631,2020-03-30T14:00:00+02:00,1585569600000,148,0,1,9.835557,50.586432,Hessisches Ministerium für Soziales und Integration,https://soziales.hessen.de/gesundheit/infektionsschutz/coronavirus-sars-cov-2/taegliche-uebersicht-der-bestaetigten-sars-cov-2-faelle-hessen,regio
Hessen,Gießen (Kreis),06531,2020-03-30T14:00:00+02:00,1585569600000,122,0,0,8.678804,50.584864,Hessisches Ministerium für Soziales und Integration,https://soziales.hessen.de/gesundheit/infektionsschutz/coronavirus-sars-cov-2/taegliche-uebersicht-der-bestaetigten-sars-cov-2-faelle-hessen,regio
Hessen,Groß-Gerau (Kreis),06433,2020-03-30T14:00:00+02:00,1585569600000,184,0,0,8.484752,49.918733,Hessisches Ministerium für Soziales und Integration,https://soziales.hessen.de/gesundheit/infektionsschutz/coronavirus-sars-cov-2/taegliche-uebersicht-der-bestaetigten-sars-cov-2-faelle-hessen,regio
Hessen,Hersfeld-Rotenburg (Kreis),06632,2020-03-30T14:00:00+02:00,1585569600000,39,0,0,9.778356,50.941044,Hessisches Ministerium für Soziales und Integration,https://soziales.hessen.de/gesundheit/infektionsschutz/coronavirus-sars-cov-2/taegliche-uebersicht-der-bestaetigten-sars-cov-2-faelle-hessen,regio
Hessen,Hochtaunuskreis,06434,2020-03-30T14:00:00+02:00,1585569600000,139,0,0,8.500836,50.279095,Hessisches Ministerium für Soziales und Integration,https://soziales.hessen.de/gesundheit/infektionsschutz/coronavirus-sars-cov-2/taegliche-uebersicht-der-bestaetigten-sars-cov-2-faelle-hessen,regio
Hessen,Kassel (Kreis),06633,2020-03-30T14:00:00+02:00,1585569600000,82,0,0,9.47572,51.309934,Hessisches Ministerium für Soziales und Integration,https://soziales.hessen.de/gesundheit/infektionsschutz/coronavirus-sars-cov-2/taegliche-uebersicht-der-bestaetigten-sars-cov-2-faelle-hessen,regio
Hessen,Lahn-Dill-Kreis,06532,2020-03-30T14:00:00+02:00,1585569600000,152,0,0,8.369245,50.632807,Hessisches Ministerium für Soziales und Integration,https://soziales.hessen.de/gesundheit/infektionsschutz/coronavirus-sars-cov-2/taegliche-uebersicht-der-bestaetigten-sars-cov-2-faelle-hessen,regio
Hessen,Limburg-Weilburg (Kreis),06533,2020-03-30T14:00:00+02:00,1585569600000,149,0,0,8.199483,50.426537,Hessisches Ministerium für Soziales und Integration,https://soziales.hessen.de/gesundheit/infektionsschutz/coronavirus-sars-cov-2/taegliche-uebersicht-der-bestaetigten-sars-cov-2-faelle-hessen,regio
Hessen,Main-Kinzig-Kreis,06435,2020-03-30T14:00:00+02:00,1585569600000,146,0,1,9.374268,50.26106,Hessisches Ministerium für Soziales und Integration,https://soziales.hessen.de/gesundheit/infektionsschutz/coronavirus-sars-cov-2/taegliche-uebersicht-der-bestaetigten-sars-cov-2-faelle-hessen,regio
Hessen,Main-Taunus-Kreis,06436,2020-03-30T14:00:00+02:00,1585569600000,115,0,1,8.424899,50.123174,Hessisches Ministerium für Soziales und Integration,https://soziales.hessen.de/gesundheit/infektionsschutz/coronavirus-sars-cov-2/taegliche-uebersicht-der-bestaetigten-sars-cov-2-faelle-hessen,regio
Hessen,Marburg-Biedenkopf (Kreis),06534,2020-03-30T14:00:00+02:00,1585569600000,102,0,1,8.745874,50.828021,Hessisches Ministerium für Soziales und Integration,https://soziales.hessen.de/gesundheit/infektionsschutz/coronavirus-sars-cov-2/taegliche-uebersicht-der-bestaetigten-sars-cov-2-faelle-hessen,regio
Hessen,Odenwaldkreis,06437,2020-03-30T14:00:00+02:00,1585569600000,60,0,0,8.982524,49.673628,Hessisches Ministerium für Soziales und Integration,https://soziales.hessen.de/gesundheit/infektionsschutz/coronavirus-sars-cov-2/taegliche-uebersicht-der-bestaetigten-sars-cov-2-faelle-hessen,regio
Hessen,Offenbach (Kreis),06438,2020-03-30T14:00:00+02:00,1585569600000,173,0,3,8.782946,50.01655,Hessisches Ministerium für Soziales und Integration,https://soziales.hessen.de/gesundheit/infektionsschutz/coronavirus-sars-cov-2/taegliche-uebersicht-der-bestaetigten-sars-cov-2-faelle-hessen,regio
Hessen,Rheingau-Taunus-Kreis,06439,2020-03-30T14:00:00+02:00,1585569600000,107,0,0,8.023152,50.121732,Hessisches Ministerium für Soziales und Integration,https://soziales.hessen.de/gesundheit/infektionsschutz/coronavirus-sars-cov-2/taegliche-uebersicht-der-bestaetigten-sars-cov-2-faelle-hessen,regio
Hessen,Schwalm-Eder-Kreis,06634,2020-03-30T14:00:00+02:00,1585569600000,158,0,1,9.373738,51.045594,Hessisches Ministerium für Soziales und Integration,https://soziales.hessen.de/gesundheit/infektionsschutz/coronavirus-sars-cov-2/taegliche-uebersicht-der-bestaetigten-sars-cov-2-faelle-hessen,regio
Hessen,Vogelsbergkreis,06535,2020-03-30T14:00:00+02:00,1585569600000,53,0,0,9.296701,50.634406,Hessisches Ministerium für Soziales und Integration,https://soziales.hessen.de/gesundheit/infektionsschutz/coronavirus-sars-cov-2/taegliche-uebersicht-der-bestaetigten-sars-cov-2-faelle-hessen,regio
Hessen,Waldeck-Frankenberg (Kreis),06635,2020-03-30T14:00:00+02:00,1585569600000,61,0,0,8.945795,51.148668,Hessisches Ministerium für Soziales und Integration,https://soziales.hessen.de/gesundheit/infektionsschutz/coronavirus-sars-cov-2/taegliche-uebersicht-der-bestaetigten-sars-cov-2-faelle-hessen,regio
Hessen,Werra-Meißner-Kreis,06636,2020-03-30T14:00:00+02:00,1585569600000,20,0,0,9.903565,51.17743,Hessisches Ministerium für Soziales und Integration,https://soziales.hessen.de/gesundheit/infektionsschutz/coronavirus-sars-cov-2/taegliche-uebersicht-der-bestaetigten-sars-cov-2-faelle-hessen,regio
Hessen,Wetteraukreis,06440,2020-03-30T14:00:00+02:00,1585569600000,91,0,0,8.97774,50.347935,Hessisches Ministerium für Soziales und Integration,https://soziales.hessen.de/gesundheit/infektionsschutz/coronavirus-sars-cov-2/taegliche-uebersicht-der-bestaetigten-sars-cov-2-faelle-hessen,regio
Hessen,Darmstadt,06411,2020-03-30T14:00:00+02:00,1585569600000,61,0,0,8.651994,49.872151,Hessisches Ministerium für Soziales und Integration,https://soziales.hessen.de/gesundheit/infektionsschutz/coronavirus-sars-cov-2/taegliche-uebersicht-der-bestaetigten-sars-cov-2-faelle-hessen,regio
Hessen,Frankfurt am Main,06412,2020-03-30T14:00:00+02:00,1585569600000,352,0,2,8.584764,50.041821,Hessisches Ministerium für Soziales und Integration,https://soziales.hessen.de/gesundheit/infektionsschutz/coronavirus-sars-cov-2/taegliche-uebersicht-der-bestaetigten-sars-cov-2-faelle-hessen,regio
Hessen,Kassel,06611,2020-03-30T14:00:00+02:00,1585569600000,83,0,0,9.47572,51.309934,Hessisches Ministerium für Soziales und Integration,https://soziales.hessen.de/gesundheit/infektionsschutz/coronavirus-sars-cov-2/taegliche-uebersicht-der-bestaetigten-sars-cov-2-faelle-hessen,regio
Hessen,Offenbach,06413,2020-03-30T14:00:00+02:00,1585569600000,24,0,1,8.777582,50.094538,Hessisches Ministerium für Soziales und Integration,https://soziales.hessen.de/gesundheit/infektionsschutz/coronavirus-sars-cov-2/taegliche-uebersicht-der-bestaetigten-sars-cov-2-faelle-hessen,regio
Hessen,Wiesbaden,06414,2020-03-30T14:00:00+02:00,1585569600000,166,0,1,8.231418,50.067275,Hessisches Ministerium für Soziales und Integration,https://soziales.hessen.de/gesundheit/infektionsschutz/coronavirus-sars-cov-2/taegliche-uebersicht-der-bestaetigten-sars-cov-2-faelle-hessen,regio
Hessen,nicht zugeordnet,NA,2020-03-30T14:00:00+02:00,1585569600000,0,0,0,null,null,RKI/eigene Recherchen,,regio
Mecklenburg-Vorpommern,Rostock,13003,2020-03-30T16:00:00+02:00,1585576800000,58,0,0,12.136768,54.090256,Gesundheitsministerium Mecklenburg-Vorpommern,https://www.regierung-mv.de/Landesregierung/wm/Aktuelles--Blickpunkte/Wichtige-Informationen-zum-Corona%E2%80%93Virus,regio
Mecklenburg-Vorpommern,Rostock (Kreis),13072,2020-03-30T16:00:00+02:00,1585576800000,29,0,0,12.175208,53.800242,Gesundheitsministerium Mecklenburg-Vorpommern,https://www.regierung-mv.de/Landesregierung/wm/Aktuelles--Blickpunkte/Wichtige-Informationen-zum-Corona%E2%80%93Virus,regio
Mecklenburg-Vorpommern,Mecklenburgische Seenplatte (Kreis),13071,2020-03-31T10:00:00+02:00,1585641600000,60,0,1,13.276749,53.563154,Gesundheitsministerium Mecklenburg-Vorpommern,https://www.regierung-mv.de/Landesregierung/wm/Aktuelles--Blickpunkte/Wichtige-Informationen-zum-Corona%E2%80%93Virus,regio
Mecklenburg-Vorpommern,Schwerin,13004,2020-03-30T16:00:00+02:00,1585576800000,62,0,0,11.401311,53.633013,Gesundheitsministerium Mecklenburg-Vorpommern,https://www.regierung-mv.de/Landesregierung/wm/Aktuelles--Blickpunkte/Wichtige-Informationen-zum-Corona%E2%80%93Virus,regio
Mecklenburg-Vorpommern,Nordwestmecklenburg (Kreis),13074,2020-03-31T10:00:00+02:00,1585641600000,28,0,1,11.156536,53.790258,Gesundheitsministerium Mecklenburg-Vorpommern,https://www.regierung-mv.de/Landesregierung/wm/Aktuelles--Blickpunkte/Wichtige-Informationen-zum-Corona%E2%80%93Virus,regio
Mecklenburg-Vorpommern,Vorpommern-Rügen (Kreis),13073,2020-03-30T16:00:00+02:00,1585576800000,36,0,0,13.082859,54.312534,Gesundheitsministerium Mecklenburg-Vorpommern,https://www.regierung-mv.de/Landesregierung/wm/Aktuelles--Blickpunkte/Wichtige-Informationen-zum-Corona%E2%80%93Virus,regio
Mecklenburg-Vorpommern,Vorpommern-Greifswald (Kreis),13075,2020-03-30T16:00:00+02:00,1585576800000,56,0,0,13.336998,54.179611,Gesundheitsministerium Mecklenburg-Vorpommern,https://www.regierung-mv.de/Landesregierung/wm/Aktuelles--Blickpunkte/Wichtige-Informationen-zum-Corona%E2%80%93Virus,regio
Mecklenburg-Vorpommern,Ludwigslust-Parchim (Kreis),13076,2020-03-30T16:00:00+02:00,1585576800000,37,0,1,11.86895,53.526413,Gesundheitsministerium Mecklenburg-Vorpommern,https://www.regierung-mv.de/Landesregierung/wm/Aktuelles--Blickpunkte/Wichtige-Informationen-zum-Corona%E2%80%93Virus,regio
Mecklenburg-Vorpommern,nicht zugeordnet,NA,2020-03-30T16:00:00+02:00,1585576800000,0,0,0,null,null,Gesundheitsministerium Mecklenburg-Vorpommern,https://www.regierung-mv.de/Landesregierung/wm/Aktuelles--Blickpunkte/Wichtige-Informationen-zum-Corona%E2%80%93Virus,regio
Niedersachsen,Ammerland (Kreis),03451,2020-03-31T13:00:00+02:00,1585652400000,79,0,0,8.013506,53.191156,Niedersächsisches Gesundheitsministerium,https://www.niedersachsen.de/coronavirus,regio
Niedersachsen,Aurich (Kreis),03452,2020-03-31T13:00:00+02:00,1585652400000,52,0,0,7.484558,53.472037,Niedersächsisches Gesundheitsministerium,https://www.niedersachsen.de/coronavirus,regio
Niedersachsen,Celle (Kreis),03351,2020-03-31T13:00:00+02:00,1585652400000,88,0,0,10.067616,52.616251,Niedersächsisches Gesundheitsministerium,https://www.niedersachsen.de/coronavirus,regio
Niedersachsen,Cloppenburg (Kreis),03453,2020-03-31T13:00:00+02:00,1585652400000,34,0,0,8.050926,52.849613,Niedersächsisches Gesundheitsministerium,https://www.niedersachsen.de/coronavirus,regio
Niedersachsen,Cuxhaven (Kreis),03352,2020-03-31T13:00:00+02:00,1585652400000,55,0,0,8.693474,53.859527,Niedersächsisches Gesundheitsministerium,https://www.niedersachsen.de/coronavirus,regio
Niedersachsen,Diepholz (Kreis),03251,2020-03-31T13:00:00+02:00,1585652400000,142,0,0,8.368818,52.606262,Niedersächsisches Gesundheitsministerium,https://www.niedersachsen.de/coronavirus,regio
Niedersachsen,Emsland (Kreis),03454,2020-03-31T13:00:00+02:00,1585652400000,141,0,2,7.396108,52.742567,Niedersächsisches Gesundheitsministerium,https://www.niedersachsen.de/coronavirus,regio
Niedersachsen,Friesland (Kreis),03455,2020-03-31T13:00:00+02:00,1585652400000,12,0,0,7.902233,53.788351,Niedersächsisches Gesundheitsministerium,https://www.niedersachsen.de/coronavirus,regio
Niedersachsen,Gifhorn (Kreis),03151,2020-03-31T13:00:00+02:00,1585652400000,60,0,0,10.54821,52.478198,Niedersächsisches Gesundheitsministerium,https://www.niedersachsen.de/coronavirus,regio
Niedersachsen,Goslar (Kreis),03153,2020-03-31T13:00:00+02:00,1585652400000,58,0,0,10.428213,51.914082,Niedersächsisches Gesundheitsministerium,https://www.niedersachsen.de/coronavirus,regio
Niedersachsen,Göttingen (Kreis),03456,2020-03-31T13:00:00+02:00,1585652400000,86,0,0,9.93664,51.543046,Niedersächsisches Gesundheitsministerium,https://www.niedersachsen.de/coronavirus,regio
Niedersachsen,Grafschaft Bentheim (Kreis),03159,2020-03-31T13:00:00+02:00,1585652400000,165,0,1,6.913747,52.542401,Niedersächsisches Gesundheitsministerium,https://www.niedersachsen.de/coronavirus,regio
Niedersachsen,Hameln-Pyrmont (Kreis),03252,2020-03-31T13:00:00+02:00,1585652400000,56,0,0,9.371778,52.099916,Niedersächsisches Gesundheitsministerium,https://www.niedersachsen.de/coronavirus,regio
Niedersachsen,Harburg (Kreis),03353,2020-03-31T13:00:00+02:00,1585652400000,159,0,1,9.897592,53.452194,Niedersächsisches Gesundheitsministerium,https://www.niedersachsen.de/coronavirus,regio
Niedersachsen,Heidekreis (Kreis),03358,2020-03-31T13:00:00+02:00,1585652400000,28,0,0,9.846589,53.044236,Niedersächsisches Gesundheitsministerium,https://www.niedersachsen.de/coronavirus,regio
Niedersachsen,Helmstedt (Kreis),03154,2020-03-31T13:00:00+02:00,1585652400000,60,0,0,11.006095,52.229401,Niedersächsisches Gesundheitsministerium,https://www.niedersachsen.de/coronavirus,regio
Niedersachsen,Hildesheim (Kreis),03254,2020-03-31T13:00:00+02:00,1585652400000,153,0,0,9.94949,52.152573,Niedersächsisches Gesundheitsministerium,https://www.niedersachsen.de/coronavirus,regio
Niedersachsen,Holzminden (Kreis),03255,2020-03-31T13:00:00+02:00,1585652400000,56,0,0,9.457754,51.827989,Niedersächsisches Gesundheitsministerium,https://www.niedersachsen.de/coronavirus,regio
Niedersachsen,Leer (Kreis),03457,2020-03-31T13:00:00+02:00,1585652400000,38,0,1,7.466798,53.236557,Niedersächsisches Gesundheitsministerium,https://www.niedersachsen.de/coronavirus,regio
Niedersachsen,Lüchow-Dannenberg (Kreis),03354,2020-03-31T13:00:00+02:00,1585652400000,8,0,0,11.116476,53.02493,Niedersächsisches Gesundheitsministerium,https://www.niedersachsen.de/coronavirus,regio
Niedersachsen,Lüneburg (Kreis),03355,2020-03-31T13:00:00+02:00,1585652400000,84,0,0,10.414613,53.250306,Niedersächsisches Gesundheitsministerium,https://www.niedersachsen.de/coronavirus,regio
Niedersachsen,Nienburg/Weser (Kreis),03256,2020-03-31T13:00:00+02:00,1585652400000,28,0,0,9.214476,52.640323,Niedersächsisches Gesundheitsministerium,https://www.niedersachsen.de/coronavirus,regio
Niedersachsen,Northeim (Kreis),03155,2020-03-31T13:00:00+02:00,1585652400000,39,0,0,9.998653,51.705657,Niedersächsisches Gesundheitsministerium,https://www.niedersachsen.de/coronavirus,regio
Niedersachsen,Oldenburg (Kreis),03458,2020-03-31T13:00:00+02:00,1585652400000,108,0,0,8.386652,52.9961022,Niedersächsisches Gesundheitsministerium,https://www.niedersachsen.de/coronavirus,regio
Niedersachsen,Osnabrück (Kreis),03459,2020-03-31T13:00:00+02:00,1585652400000,322,0,1,7.956597,52.4387262,Niedersächsisches Gesundheitsministerium,https://www.niedersachsen.de/coronavirus,regio
Niedersachsen,Osterholz (Kreis),03356,2020-03-31T13:00:00+02:00,1585652400000,49,0,0,8.86167,53.26602,Niedersächsisches Gesundheitsministerium,https://www.niedersachsen.de/coronavirus,regio
Niedersachsen,Peine (Kreis),03157,2020-03-31T13:00:00+02:00,1585652400000,61,0,0,10.240628,52.319699,Niedersächsisches Gesundheitsministerium,https://www.niedersachsen.de/coronavirus,regio
Niedersachsen,Rotenburg/Wümme (Kreis),03357,2020-03-31T13:00:00+02:00,1585652400000,50,0,1,9.412534,53.11113,Niedersächsisches Gesundheitsministerium,https://www.niedersachsen.de/coronavirus,regio
Niedersachsen,Schaumburg (Kreis),03257,2020-03-31T13:00:00+02:00,1585652400000,53,0,0,9.202721,52.304398,Niedersächsisches Gesundheitsministerium,https://www.niedersachsen.de/coronavirus,regio
Niedersachsen,Stade (Kreis),03359,2020-03-31T13:00:00+02:00,1585652400000,117,0,0,9.475568,53.59295,Niedersächsisches Gesundheitsministerium,https://www.niedersachsen.de/coronavirus,regio
Niedersachsen,Uelzen (Kreis),03360,2020-03-31T13:00:00+02:00,1585652400000,21,0,0,10.557401,52.963984,Niedersächsisches Gesundheitsministerium,https://www.niedersachsen.de/coronavirus,regio
Niedersachsen,Vechta (Kreis),03460,2020-03-31T13:00:00+02:00,1585652400000,169,0,1,8.281056,52.729985,Niedersächsisches Gesundheitsministerium,https://www.niedersachsen.de/coronavirus,regio
Niedersachsen,Verden (Kreis),03361,2020-03-31T13:00:00+02:00,1585652400000,58,0,0,9.250542,52.919263,Niedersächsisches Gesundheitsministerium,https://www.niedersachsen.de/coronavirus,regio
Niedersachsen,Wesermarsch (Kreis),03461,2020-03-31T13:00:00+02:00,1585652400000,39,0,0,8.148634,53.721442,Niedersächsisches Gesundheitsministerium,https://www.niedersachsen.de/coronavirus,regio
Niedersachsen,Wittmund (Kreis),03462,2020-03-31T13:00:00+02:00,1585652400000,15,0,0,7.776822,53.575725,Niedersächsisches Gesundheitsministerium,https://www.niedersachsen.de/coronavirus,regio
Niedersachsen,Wolfenbüttel (Kreis),03158,2020-03-31T13:00:00+02:00,1585652400000,36,0,0,10.550799,52.163186,Niedersächsisches Gesundheitsministerium,https://www.niedersachsen.de/coronavirus,regio
Niedersachsen,Hannover (Region),03241,2020-03-31T13:00:00+02:00,1585652400000,859,1,4,9.787455,52.379952,Niedersächsisches Gesundheitsministerium,https://www.niedersachsen.de/coronavirus,regio
Niedersachsen,Braunschweig,03101,2020-03-31T13:00:00+02:00,1585652400000,148,0,0,10.531827,52.269203,Niedersächsisches Gesundheitsministerium,https://www.niedersachsen.de/coronavirus,regio
Niedersachsen,Delmenhorst,03401,2020-03-31T13:00:00+02:00,1585652400000,20,0,1,8.648799,53.046269,Niedersächsisches Gesundheitsministerium,https://www.niedersachsen.de/coronavirus,regio
Niedersachsen,Emden,03402,2020-03-31T13:00:00+02:00,1585652400000,8,0,0,7.206439,53.362663,Niedersächsisches Gesundheitsministerium,https://www.niedersachsen.de/coronavirus,regio
Niedersachsen,Oldenburg,03403,2020-03-31T13:00:00+02:00,1585652400000,81,0,0,8.210671,53.15846,Niedersächsisches Gesundheitsministerium,https://www.niedersachsen.de/coronavirus,regio
Niedersachsen,Osnabrück,03404,2020-03-31T13:00:00+02:00,1585652400000,230,0,1,8.047347,52.274158,Niedersächsisches Gesundheitsministerium,https://www.niedersachsen.de/coronavirus,regio
Niedersachsen,Salzgitter,03102,2020-03-31T13:00:00+02:00,1585652400000,53,0,1,10.411769,52.157833,Niedersächsisches Gesundheitsministerium,https://www.niedersachsen.de/coronavirus,regio
Niedersachsen,Wilhelmshaven,03405,2020-03-31T13:00:00+02:00,1585652400000,7,0,0,8.099767,53.536564,Niedersächsisches Gesundheitsministerium,https://www.niedersachsen.de/coronavirus,regio
Niedersachsen,Wolfsburg,03103,2020-03-31T13:00:00+02:00,1585652400000,163,0,18,10.759152,52.423458,Niedersächsisches Gesundheitsministerium,https://www.niedersachsen.de/coronavirus,regio
Niedersachsen,nicht zugeordnet,NA,2020-03-31T13:00:00+02:00,1585652400000,0,0,10,null,null,Niedersächsisches Gesundheitsministerium,,regio
Nordrhein-Westfalen,Aachen & Städteregion Aachen,05334,2020-03-31T11:00:00+02:00,1585645200000,920,33,15,6.24194,50.75389,"Ministerium für Arbeit, Gesundheit und Soziales NRW",https://www.mags.nrw/coronavirus-fallzahlen-nrw,regio
Nordrhein-Westfalen,Bielefeld,05711,2020-03-31T11:00:00+02:00,1585645200000,169,0,0,8.577806,52.018202,"Ministerium für Arbeit, Gesundheit und Soziales NRW",https://www.mags.nrw/coronavirus-fallzahlen-nrw,regio
Nordrhein-Westfalen,Bochum,05911,2020-03-31T11:00:00+02:00,1585645200000,245,0,5,7.213937,51.474951,"Ministerium für Arbeit, Gesundheit und Soziales NRW",https://www.mags.nrw/coronavirus-fallzahlen-nrw,regio
Nordrhein-Westfalen,Bonn,05314,2020-03-31T11:00:00+02:00,1585645200000,272,0,1,7.114887,50.724104,"Ministerium für Arbeit, Gesundheit und Soziales NRW",https://www.mags.nrw/coronavirus-fallzahlen-nrw,regio
Nordrhein-Westfalen,Borken (Kreis),05554,2020-03-31T11:00:00+02:00,1585645200000,448,11,5,6.871077,51.849002,"Ministerium für Arbeit, Gesundheit und Soziales NRW",https://www.mags.nrw/coronavirus-fallzahlen-nrw,regio
Nordrhein-Westfalen,Bottrop,05512,2020-03-31T11:00:00+02:00,1585645200000,40,2,1,6.943227,51.52873,"Ministerium für Arbeit, Gesundheit und Soziales NRW",https://www.mags.nrw/coronavirus-fallzahlen-nrw,regio
Nordrhein-Westfalen,Coesfeld (Kreis),05558,2020-03-31T11:00:00+02:00,1585645200000,310,15,3,7.166349,51.941946,"Ministerium für Arbeit, Gesundheit und Soziales NRW",https://www.mags.nrw/coronavirus-fallzahlen-nrw,regio
Nordrhein-Westfalen,Dortmund,05913,2020-03-31T11:00:00+02:00,1585645200000,275,0,0,7.479247,51.507849,"Ministerium für Arbeit, Gesundheit und Soziales NRW",https://www.mags.nrw/coronavirus-fallzahlen-nrw,regio
Nordrhein-Westfalen,Duisburg,05112,2020-03-31T11:00:00+02:00,1585645200000,292,0,2,6.75966,51.47994,"Ministerium für Arbeit, Gesundheit und Soziales NRW",https://www.mags.nrw/coronavirus-fallzahlen-nrw,regio
Nordrhein-Westfalen,Düren (Kreis),05358,2020-03-31T11:00:00+02:00,1585645200000,246,0,2,6.48195,50.801834,"Ministerium für Arbeit, Gesundheit und Soziales NRW",https://www.mags.nrw/coronavirus-fallzahlen-nrw,regio
Nordrhein-Westfalen,Düsseldorf,05111,2020-03-31T11:00:00+02:00,1585645200000,410,0,4,6.801324,51.226297,"Ministerium für Arbeit, Gesundheit und Soziales NRW",https://www.mags.nrw/coronavirus-fallzahlen-nrw,regio
Nordrhein-Westfalen,Ennepe-Ruhr-Kreis,05954,2020-03-31T11:00:00+02:00,1585645200000,192,0,1,7.310078,51.366277,"Ministerium für Arbeit, Gesundheit und Soziales NRW",https://www.mags.nrw/coronavirus-fallzahlen-nrw,regio
Nordrhein-Westfalen,Essen,05113,2020-03-31T11:00:00+02:00,1585645200000,399,0,6,7.019603,51.468739,"Ministerium für Arbeit, Gesundheit und Soziales NRW",https://www.mags.nrw/coronavirus-fallzahlen-nrw,regio
Nordrhein-Westfalen,Euskirchen (Kreis),05366,2020-03-31T11:00:00+02:00,1585645200000,126,0,2,6.790875,50.655816,"Ministerium für Arbeit, Gesundheit und Soziales NRW",https://www.mags.nrw/coronavirus-fallzahlen-nrw,regio
Nordrhein-Westfalen,Gelsenkirchen,05513,2020-03-31T11:00:00+02:00,1585645200000,101,2,1,7.07669,51.547434,"Ministerium für Arbeit, Gesundheit und Soziales NRW",https://www.mags.nrw/coronavirus-fallzahlen-nrw,regio
Nordrhein-Westfalen,Gütersloh (Kreis),05754,2020-03-31T11:00:00+02:00,1585645200000,372,0,1,8.390601,51.903311,"Ministerium für Arbeit, Gesundheit und Soziales NRW",https://www.mags.nrw/coronavirus-fallzahlen-nrw,regio
Nordrhein-Westfalen,Hagen,05914,2020-03-31T11:00:00+02:00,1585645200000,80,0,2,7.487553,51.371236,"Ministerium für Arbeit, Gesundheit und Soziales NRW",https://www.mags.nrw/coronavirus-fallzahlen-nrw,regio
Nordrhein-Westfalen,Hamm,05915,2020-03-31T11:00:00+02:00,1585645200000,157,0,2,7.821892,51.674274,"Ministerium für Arbeit, Gesundheit und Soziales NRW",https://www.mags.nrw/coronavirus-fallzahlen-nrw,regio
Nordrhein-Westfalen,Heinsberg (Kreis),05370,2020-03-31T11:00:00+02:00,1585645200000,1266,33,35,6.098857,51.06395,"Ministerium für Arbeit, Gesundheit und Soziales NRW",https://www.mags.nrw/coronavirus-fallzahlen-nrw,regio
Nordrhein-Westfalen,Herford (Kreis),05758,2020-03-31T11:00:00+02:00,1585645200000,148,0,0,8.667448,52.115529,"Ministerium für Arbeit, Gesundheit und Soziales NRW",https://www.mags.nrw/coronavirus-fallzahlen-nrw,regio
Nordrhein-Westfalen,Herne,05916,2020-03-31T11:00:00+02:00,1585645200000,57,0,0,7.20971,51.540584,"Ministerium für Arbeit, Gesundheit und Soziales NRW",https://www.mags.nrw/coronavirus-fallzahlen-nrw,regio
Nordrhein-Westfalen,Hochsauerlandkreis,05958,2020-03-31T11:00:00+02:00,1585645200000,253,0,0,8.301315,51.24509,"Ministerium für Arbeit, Gesundheit und Soziales NRW",https://www.mags.nrw/coronavirus-fallzahlen-nrw,regio
Nordrhein-Westfalen,Höxter (Kreis),05762,2020-03-31T11:00:00+02:00,1585645200000,67,0,0,9.380873,51.775929,"Ministerium für Arbeit, Gesundheit und Soziales NRW",https://www.mags.nrw/coronavirus-fallzahlen-nrw,regio
Nordrhein-Westfalen,Kleve (Kreis),05154,2020-03-31T11:00:00+02:00,1585645200000,237,0,2,6.126757,51.7794,"Ministerium für Arbeit, Gesundheit und Soziales NRW",https://www.mags.nrw/coronavirus-fallzahlen-nrw,regio
Nordrhein-Westfalen,Köln,05315,2020-03-31T11:00:00+02:00,1585645200000,1343,235,11,6.934628,50.94718,"Ministerium für Arbeit, Gesundheit und Soziales NRW",https://www.mags.nrw/coronavirus-fallzahlen-nrw,regio
Nordrhein-Westfalen,Krefeld,05114,2020-03-31T11:00:00+02:00,1585645200000,208,0,1,6.585484,51.337869,"Ministerium für Arbeit, Gesundheit und Soziales NRW",https://www.mags.nrw/coronavirus-fallzahlen-nrw,regio
Nordrhein-Westfalen,Leverkusen,05316,2020-03-31T11:00:00+02:00,1585645200000,113,0,0,7.029976,51.048254,"Ministerium für Arbeit, Gesundheit und Soziales NRW",https://www.mags.nrw/coronavirus-fallzahlen-nrw,regio
Nordrhein-Westfalen,Lippe (Kreis),05766,2020-03-31T11:00:00+02:00,1585645200000,302,0,3,8.894953,51.962056,"Ministerium für Arbeit, Gesundheit und Soziales NRW",https://www.mags.nrw/coronavirus-fallzahlen-nrw,regio
Nordrhein-Westfalen,Märkischer Kreis,05962,2020-03-31T11:00:00+02:00,1585645200000,127,0,0,7.734746,51.285488,"Ministerium für Arbeit, Gesundheit und Soziales NRW",https://www.mags.nrw/coronavirus-fallzahlen-nrw,regio
Nordrhein-Westfalen,Mettmann (Kreis),05158,2020-03-31T11:00:00+02:00,1585645200000,361,0,5,6.970846,51.252811,"Ministerium für Arbeit, Gesundheit und Soziales NRW",https://www.mags.nrw/coronavirus-fallzahlen-nrw,regio
Nordrhein-Westfalen,Minden-Lübbecke (Kreis),05770,2020-03-31T11:00:00+02:00,1585645200000,268,0,0,8.592771,52.383867,"Ministerium für Arbeit, Gesundheit und Soziales NRW",https://www.mags.nrw/coronavirus-fallzahlen-nrw,regio
Nordrhein-Westfalen,Mönchengladbach,05116,2020-03-31T11:00:00+02:00,1585645200000,178,0,1,6.428687,51.1821,"Ministerium für Arbeit, Gesundheit und Soziales NRW",https://www.mags.nrw/coronavirus-fallzahlen-nrw,regio
Nordrhein-Westfalen,Mülheim an der Ruhr,05117,2020-03-31T11:00:00+02:00,1585645200000,76,0,1,6.894836,51.437117,"Ministerium für Arbeit, Gesundheit und Soziales NRW",https://www.mags.nrw/coronavirus-fallzahlen-nrw,regio
Nordrhein-Westfalen,Münster,05515,2020-03-31T11:00:00+02:00,1585645200000,468,6,2,7.624747,51.954044,"Ministerium für Arbeit, Gesundheit und Soziales NRW",https://www.mags.nrw/coronavirus-fallzahlen-nrw,regio
Nordrhein-Westfalen,Oberbergischer Kreis,05374,2020-03-31T11:00:00+02:00,1585645200000,234,0,2,7.579776,50.971448,"Ministerium für Arbeit, Gesundheit und Soziales NRW",https://www.mags.nrw/coronavirus-fallzahlen-nrw,regio
Nordrhein-Westfalen,Oberhausen,05119,2020-03-31T11:00:00+02:00,1585645200000,68,0,0,6.862345,51.498071,"Ministerium für Arbeit, Gesundheit und Soziales NRW",https://www.mags.nrw/coronavirus-fallzahlen-nrw,regio
Nordrhein-Westfalen,Olpe (Kreis),05966,2020-03-31T11:00:00+02:00,1585645200000,127,0,1,7.849124,51.026592,"Ministerium für Arbeit, Gesundheit und Soziales NRW",https://www.mags.nrw/coronavirus-fallzahlen-nrw,regio
Nordrhein-Westfalen,Paderborn (Kreis),05774,2020-03-31T11:00:00+02:00,1585645200000,201,0,1,8.740642,51.718539,"Ministerium für Arbeit, Gesundheit und Soziales NRW",https://www.mags.nrw/coronavirus-fallzahlen-nrw,regio
Nordrhein-Westfalen,Recklinghausen (Kreis),05562,2020-03-31T11:00:00+02:00,1585645200000,357,0,1,7.214087,51.586044,"Ministerium für Arbeit, Gesundheit und Soziales NRW",https://www.mags.nrw/coronavirus-fallzahlen-nrw,regio
Nordrhein-Westfalen,Remscheid,05120,2020-03-31T11:00:00+02:00,1585645200000,59,0,1,7.180644,51.180907,"Ministerium für Arbeit, Gesundheit und Soziales NRW",https://www.mags.nrw/coronavirus-fallzahlen-nrw,regio
Nordrhein-Westfalen,Rhein-Erft-Kreis,05362,2020-03-31T11:00:00+02:00,1585645200000,344,0,1,6.69704,50.926461,"Ministerium für Arbeit, Gesundheit und Soziales NRW",https://www.mags.nrw/coronavirus-fallzahlen-nrw,regio
Nordrhein-Westfalen,Rheinisch-Bergischer Kreis,05378,2020-03-31T11:00:00+02:00,1585645200000,200,0,2,7.181018,51.013579,"Ministerium für Arbeit, Gesundheit und Soziales NRW",https://www.mags.nrw/coronavirus-fallzahlen-nrw,regio
Nordrhein-Westfalen,Rhein-Kreis Neuss,05162,2020-03-31T11:00:00+02:00,1585645200000,349,0,6,6.645946,51.134897,"Ministerium für Arbeit, Gesundheit und Soziales NRW",https://www.mags.nrw/coronavirus-fallzahlen-nrw,regio
Nordrhein-Westfalen,Rhein-Sieg-Kreis,05382,2020-03-31T11:00:00+02:00,1585645200000,543,0,2,7.297208,50.789159,"Ministerium für Arbeit, Gesundheit und Soziales NRW",https://www.mags.nrw/coronavirus-fallzahlen-nrw,regio
Nordrhein-Westfalen,Siegen-Wittgenstein (Kreis),05970,2020-03-31T11:00:00+02:00,1585645200000,100,0,1,8.0748,50.892976,"Ministerium für Arbeit, Gesundheit und Soziales NRW",https://www.mags.nrw/coronavirus-fallzahlen-nrw,regio
Nordrhein-Westfalen,Soest (Kreis),05974,2020-03-31T11:00:00+02:00,1585645200000,199,0,0,8.113109,51.568226,"Ministerium für Arbeit, Gesundheit und Soziales NRW",https://www.mags.nrw/coronavirus-fallzahlen-nrw,regio
Nordrhein-Westfalen,Solingen,05122,2020-03-31T11:00:00+02:00,1585645200000,102,0,1,7.070708,51.176385,"Ministerium für Arbeit, Gesundheit und Soziales NRW",https://www.mags.nrw/coronavirus-fallzahlen-nrw,regio
Nordrhein-Westfalen,Steinfurt (Kreis),05566,2020-03-31T11:00:00+02:00,1585645200000,395,2,1,7.331065,52.144456,"Ministerium für Arbeit, Gesundheit und Soziales NRW",https://www.mags.nrw/coronavirus-fallzahlen-nrw,regio
Nordrhein-Westfalen,Unna (Kreis),05978,2020-03-31T11:00:00+02:00,1585645200000,189,0,3,7.685846,51.537065,"Ministerium für Arbeit, Gesundheit und Soziales NRW",https://www.mags.nrw/coronavirus-fallzahlen-nrw,regio
Nordrhein-Westfalen,Viersen (Kreis),05166,2020-03-31T11:00:00+02:00,1585645200000,275,0,2,6.396321,51.254239,"Ministerium für Arbeit, Gesundheit und Soziales NRW",https://www.mags.nrw/coronavirus-fallzahlen-nrw,regio
Nordrhein-Westfalen,Warendorf (Kreis),05570,2020-03-31T11:00:00+02:00,1585645200000,303,4,1,7.992631,51.95119,"Ministerium für Arbeit, Gesundheit und Soziales NRW",https://www.mags.nrw/coronavirus-fallzahlen-nrw,regio
Nordrhein-Westfalen,Wesel (Kreis),05170,2020-03-31T11:00:00+02:00,1585645200000,237,0,2,6.625631,51.664636,"Ministerium für Arbeit, Gesundheit und Soziales NRW",https://www.mags.nrw/coronavirus-fallzahlen-nrw,regio
Nordrhein-Westfalen,Wuppertal,05124,2020-03-31T11:00:00+02:00,1585645200000,197,0,3,7.143049,51.265292,"Ministerium für Arbeit, Gesundheit und Soziales NRW",https://www.mags.nrw/coronavirus-fallzahlen-nrw,regio
Nordrhein-Westfalen,nicht zugeordnet,NA,2020-03-31T11:00:00+02:00,1585645200000,0,0,0,null,null,"Ministerium für Arbeit, Gesundheit und Soziales NRW",https://www.mags.nrw/coronavirus-fallzahlen-nrw,regio
Rheinland-Pfalz,Ahrweiler (Kreis),07131,2020-03-31T13:00:00+02:00,1585652400000,66,0,1,7.069909,50.495396,Gesundheitsministerium Rheinland-Pfalz,https://msagd.rlp.de/,regio
Rheinland-Pfalz,Altenkirchen (Kreis),07132,2020-03-31T13:00:00+02:00,1585652400000,50,0,0,7.638015,50.686408,Gesundheitsministerium Rheinland-Pfalz,https://msagd.rlp.de/,regio
Rheinland-Pfalz,Alzey-Worms (Kreis),07331,2020-03-31T13:00:00+02:00,1585652400000,83,0,0,8.109437,49.789215,Gesundheitsministerium Rheinland-Pfalz,https://msagd.rlp.de/,regio
Rheinland-Pfalz,Bad Dürkheim (Kreis),07332,2020-03-31T13:00:00+02:00,1585652400000,170,0,2,8.17015,49.459586,Gesundheitsministerium Rheinland-Pfalz,https://msagd.rlp.de/,regio
Rheinland-Pfalz,Bad Kreuznach (Kreis),07133,2020-03-31T13:00:00+02:00,1585652400000,95,0,0,7.869982,49.841345,Gesundheitsministerium Rheinland-Pfalz,https://msagd.rlp.de/,regio
Rheinland-Pfalz,Bernkastel-Wittlich (Kreis),07231,2020-03-31T13:00:00+02:00,1585652400000,62,0,0,6.995345,49.93365,Gesundheitsministerium Rheinland-Pfalz,https://msagd.rlp.de/,regio
Rheinland-Pfalz,Birkenfeld (Kreis),07134,2020-03-31T13:00:00+02:00,1585652400000,31,0,0,8.634736,48.871007,Gesundheitsministerium Rheinland-Pfalz,https://msagd.rlp.de/,regio
Rheinland-Pfalz,Bitburg-Prüm (Kreis),07232,2020-03-31T13:00:00+02:00,1585652400000,97,0,0,6.385546,50.042447,Gesundheitsministerium Rheinland-Pfalz,https://msagd.rlp.de/,regio
Rheinland-Pfalz,Cochem-Zell (Kreis),07135,2020-03-31T13:00:00+02:00,1585652400000,100,0,0,7.185379,50.139756,Gesundheitsministerium Rheinland-Pfalz,https://msagd.rlp.de/,regio
Rheinland-Pfalz,Donnersbergkreis,07333,2020-03-31T13:00:00+02:00,1585652400000,59,0,1,7.864199,49.642956,Gesundheitsministerium Rheinland-Pfalz,https://msagd.rlp.de/,regio
Rheinland-Pfalz,Germersheim (Kreis),07334,2020-03-31T13:00:00+02:00,1585652400000,68,0,1,8.374615,49.220182,Gesundheitsministerium Rheinland-Pfalz,https://msagd.rlp.de/,regio
Rheinland-Pfalz,Kaiserslautern (Kreis),07335,2020-03-31T13:00:00+02:00,1585652400000,54,0,0,7.760953,49.439283,Gesundheitsministerium Rheinland-Pfalz,https://msagd.rlp.de/,regio
Rheinland-Pfalz,Kusel (Kreis),07336,2020-03-31T13:00:00+02:00,1585652400000,45,0,0,7.403662,49.537089,Gesundheitsministerium Rheinland-Pfalz,https://msagd.rlp.de/,regio
Rheinland-Pfalz,Mainz-Bingen (Kreis),07339,2020-03-31T13:00:00+02:00,1585652400000,117,0,0,8.074206,49.946826,Gesundheitsministerium Rheinland-Pfalz,https://msagd.rlp.de/,regio
Rheinland-Pfalz,Mayen-Koblenz (Kreis),07137,2020-03-31T13:00:00+02:00,1585652400000,233,0,1,7.366722,50.33846,Gesundheitsministerium Rheinland-Pfalz,https://msagd.rlp.de/,regio
Rheinland-Pfalz,Neuwied (Kreis),07138,2020-03-31T13:00:00+02:00,1585652400000,134,0,2,7.465214,50.434609,Gesundheitsministerium Rheinland-Pfalz,https://msagd.rlp.de/,regio
Rheinland-Pfalz,Rhein-Hunsrück (Kreis),07140,2020-03-31T13:00:00+02:00,1585652400000,104,0,0,7.527653,50.047015,Gesundheitsministerium Rheinland-Pfalz,https://msagd.rlp.de/,regio
Rheinland-Pfalz,Rhein-Lahn-Kreis,07141,2020-03-31T13:00:00+02:00,1585652400000,85,0,2,7.793274,50.24352,Gesundheitsministerium Rheinland-Pfalz,https://msagd.rlp.de/,regio
Rheinland-Pfalz,Rhein-Pfalz-Kreis,07338,2020-03-31T13:00:00+02:00,1585652400000,62,0,0,8.347032,49.396557,Gesundheitsministerium Rheinland-Pfalz,https://msagd.rlp.de/,regio
Rheinland-Pfalz,Südliche Weinstr. (Kreis),07337,2020-03-31T13:00:00+02:00,1585652400000,80,0,0,8.07472,49.21778,Gesundheitsministerium Rheinland-Pfalz,https://msagd.rlp.de/,regio
Rheinland-Pfalz,Südwestpfalz (Kreis),07340,2020-03-31T13:00:00+02:00,1585652400000,44,0,1,7.749542,49.154071,Gesundheitsministerium Rheinland-Pfalz,https://msagd.rlp.de/,regio
Rheinland-Pfalz,Trier-Saarburg (Kreis),07235,2020-03-31T13:00:00+02:00,1585652400000,79,0,1,6.830504,49.691711,Gesundheitsministerium Rheinland-Pfalz,https://msagd.rlp.de/,regio
Rheinland-Pfalz,Vulkaneifel (Kreis),07233,2020-03-31T13:00:00+02:00,1585652400000,51,0,0,6.743501,50.229189,Gesundheitsministerium Rheinland-Pfalz,https://msagd.rlp.de/,regio
Rheinland-Pfalz,Westerwaldkreis,07143,2020-03-31T13:00:00+02:00,1585652400000,143,0,2,7.846449,50.541812,Gesundheitsministerium Rheinland-Pfalz,https://msagd.rlp.de/,regio
Rheinland-Pfalz,Frankenthal,07311,2020-03-31T13:00:00+02:00,1585652400000,19,0,0,8.355347,49.534214,Gesundheitsministerium Rheinland-Pfalz,https://msagd.rlp.de/,regio
Rheinland-Pfalz,Kaiserslautern,07312,2020-03-31T13:00:00+02:00,1585652400000,53,0,1,7.760953,49.439283,Gesundheitsministerium Rheinland-Pfalz,https://msagd.rlp.de/,regio
Rheinland-Pfalz,Koblenz,07111,2020-03-31T13:00:00+02:00,1585652400000,124,0,5,7.592158,50.355975,Gesundheitsministerium Rheinland-Pfalz,https://msagd.rlp.de/,regio
Rheinland-Pfalz,Landau i.d.Pfalz,07313,2020-03-31T13:00:00+02:00,1585652400000,33,0,0,8.125905,49.196109,Gesundheitsministerium Rheinland-Pfalz,https://msagd.rlp.de/,regio
Rheinland-Pfalz,Ludwigshafen,07314,2020-03-31T13:00:00+02:00,1585652400000,73,0,0,8.426544,49.475368,Gesundheitsministerium Rheinland-Pfalz,https://msagd.rlp.de/,regio
Rheinland-Pfalz,Mainz,07315,2020-03-31T13:00:00+02:00,1585652400000,187,0,0,8.253032,49.997895,Gesundheitsministerium Rheinland-Pfalz,https://msagd.rlp.de/,regio
Rheinland-Pfalz,Neustadt Weinst.,07316,2020-03-31T13:00:00+02:00,1585652400000,55,0,1,8.153556,49.34987,Gesundheitsministerium Rheinland-Pfalz,https://msagd.rlp.de/,regio
Rheinland-Pfalz,Pirmasens,07317,2020-03-31T13:00:00+02:00,1585652400000,15,0,0,7.601581,49.203633,Gesundheitsministerium Rheinland-Pfalz,https://msagd.rlp.de/,regio
Rheinland-Pfalz,Speyer,07318,2020-03-31T13:00:00+02:00,1585652400000,24,0,0,8.437615,49.319469,Gesundheitsministerium Rheinland-Pfalz,https://msagd.rlp.de/,regio
Rheinland-Pfalz,Trier,07211,2020-03-31T13:00:00+02:00,1585652400000,60,0,0,6.645776,49.750116,Gesundheitsministerium Rheinland-Pfalz,https://msagd.rlp.de/,regio
Rheinland-Pfalz,Worms,07319,2020-03-31T13:00:00+02:00,1585652400000,73,0,1,8.357528,49.639697,Gesundheitsministerium Rheinland-Pfalz,https://msagd.rlp.de/,regio
Rheinland-Pfalz,Zweibrücken,07320,2020-03-31T13:00:00+02:00,1585652400000,11,0,0,7.370796,49.247043,Gesundheitsministerium Rheinland-Pfalz,https://msagd.rlp.de/,regio
Saarland,Saarbrücken,10041,2020-03-30T17:00:00+02:00,1585580400000,268,0,7,6.99619,49.23265,"Ministerium für Soziales, Gesundheit, Frauen und Familie",https://www.saarland.de/59841_254759.htm,regio
Saarland,Saarpfalz,10045,2020-03-30T17:00:00+02:00,1585580400000,156,0,1,7.24,49.25,"Ministerium für Soziales, Gesundheit, Frauen und Familie",https://www.saarland.de/59841_254759.htm,regio
Saarland,St. Wendel,10046,2020-03-30T17:00:00+02:00,1585580400000,86,0,0,7.1725,49.468,"Ministerium für Soziales, Gesundheit, Frauen und Familie",https://www.saarland.de/59841_254759.htm,regio
Saarland,Saarlouis,10044,2020-03-30T17:00:00+02:00,1585580400000,129,0,1,6.75,49.316,"Ministerium für Soziales, Gesundheit, Frauen und Familie",https://www.saarland.de/59841_254759.htm,regio
Saarland,Neunkirchen,10043,2020-03-30T17:00:00+02:00,1585580400000,106,0,0,7.12,49.38,"Ministerium für Soziales, Gesundheit, Frauen und Familie",https://www.saarland.de/59841_254759.htm,regio
Saarland,Merzig-Wadern,10042,2020-03-30T17:00:00+02:00,1585580400000,55,0,0,6.68,49.5,"Ministerium für Soziales, Gesundheit, Frauen und Familie",https://www.saarland.de/59841_254759.htm,regio
Saarland,nicht zugeordnet,NA,2020-03-30T17:00:00+02:00,1585580400000,0,47,0,null,null,"Ministerium für Soziales, Gesundheit, Frauen und Familie",https://www.saarland.de/59841_254759.htm,regio
Sachsen,Dresden,14612,2020-03-30T14:00:00+02:00,1585569600000,339,0,3,13.731021,51.055604,Sächsische Staatsregierung,https://www.coronavirus.sachsen.de/infektionsfaelle-in-sachsen-4151.html,regio
Sachsen,Chemnitz,14511,2020-03-30T14:00:00+02:00,1585569600000,99,0,0,12.912219,50.83382,Sächsische Staatsregierung,https://www.coronavirus.sachsen.de/infektionsfaelle-in-sachsen-4151.html,regio
Sachsen,Leipzig,14713,2020-03-30T14:00:00+02:00,1585569600000,299,0,0,12.404024,51.341053,Sächsische Staatsregierung,https://www.coronavirus.sachsen.de/infektionsfaelle-in-sachsen-4151.html,regio
Sachsen,Bautzen (Kreis),14625,2020-03-30T14:00:00+02:00,1585569600000,156,5,1,14.43138,51.177232,Sächsische Staatsregierung,https://www.coronavirus.sachsen.de/infektionsfaelle-in-sachsen-4151.html,regio
Sachsen,Erzgebirgskreis,14521,2020-03-30T14:00:00+02:00,1585569600000,94,0,1,12.893868,50.591333,Sächsische Staatsregierung,https://www.coronavirus.sachsen.de/infektionsfaelle-in-sachsen-4151.html,regio
Sachsen,Görlitz (Kreis),14626,2020-03-30T14:00:00+02:00,1585569600000,67,0,1,14.804324,51.325805,Sächsische Staatsregierung,https://www.coronavirus.sachsen.de/infektionsfaelle-in-sachsen-4151.html,regio
Sachsen,Leipzig (Kreis),14729,2020-03-30T14:00:00+02:00,1585569600000,91,0,0,12.653911,51.354544,Sächsische Staatsregierung,https://www.coronavirus.sachsen.de/infektionsfaelle-in-sachsen-4151.html,regio
Sachsen,Meißen (Kreis),14627,2020-03-30T14:00:00+02:00,1585569600000,69,0,1,13.483105,51.162283,Sächsische Staatsregierung,https://www.coronavirus.sachsen.de/infektionsfaelle-in-sachsen-4151.html,regio
Sachsen,Mittelsachsen (Kreis),14522,2020-03-30T14:00:00+02:00,1585569600000,94,0,0,13.086494,50.999316,Sächsische Staatsregierung,https://www.coronavirus.sachsen.de/infektionsfaelle-in-sachsen-4151.html,regio
Sachsen,Nordsachsen (Kreis),14730,2020-03-30T14:00:00+02:00,1585569600000,37,0,0,12.823956,51.562271,Sächsische Staatsregierung,https://www.coronavirus.sachsen.de/infektionsfaelle-in-sachsen-4151.html,regio
Sachsen,Sächsische Schweiz-Osterzgebirge (Kreis),14628,2020-03-30T14:00:00+02:00,1585569600000,149,0,0,13.709499,50.866302,Sächsische Staatsregierung,https://www.coronavirus.sachsen.de/infektionsfaelle-in-sachsen-4151.html,regio
Sachsen,Vogtlandkreis,14523,2020-03-30T14:00:00+02:00,1585569600000,106,0,1,12.289398,50.451521,Sächsische Staatsregierung,https://www.coronavirus.sachsen.de/infektionsfaelle-in-sachsen-4151.html,regio
Sachsen,Zwickau (Kreis),14524,2020-03-30T14:00:00+02:00,1585569600000,330,0,3,12.487302,50.716316,Sächsische Staatsregierung,https://www.coronavirus.sachsen.de/infektionsfaelle-in-sachsen-4151.html,regio
Sachsen,nicht zugeordnet,NA,2020-03-30T14:00:00+02:00,1585569600000,0,0,0,null,null,Sächsische Staatsregierung,,regio
Sachsen-Anhalt,Altmarkkreis Salzwedel,15081,2020-03-30T16:00:00+02:00,1585576800000,14,0,0,11.191293,52.668846,"Ministerium für Arbeit, Soziales und Integration in Sachsen-Anhalt",https://www.sachsen-anhalt.de/bs/pressemitteilungen/?no_cache=1,regio
Sachsen-Anhalt,Anhalt-Bitterfeld (Kreis),15082,2020-03-30T16:00:00+02:00,1585576800000,37,0,0,12.137063,51.680297,"Ministerium für Arbeit, Soziales und Integration in Sachsen-Anhalt",https://www.sachsen-anhalt.de/bs/pressemitteilungen/?no_cache=1,regio
Sachsen-Anhalt,Börde (Kreis),15083,2020-03-30T16:00:00+02:00,1585576800000,55,0,0,11.340913,52.207297,"Ministerium für Arbeit, Soziales und Integration in Sachsen-Anhalt",https://www.sachsen-anhalt.de/bs/pressemitteilungen/?no_cache=1,regio
Sachsen-Anhalt,Burgenlandkreis,15084,2020-03-30T16:00:00+02:00,1585576800000,31,0,0,11.999034,51.135254,"Ministerium für Arbeit, Soziales und Integration in Sachsen-Anhalt",https://www.sachsen-anhalt.de/bs/pressemitteilungen/?no_cache=1,regio
Sachsen-Anhalt,Harz (Kreis),15085,2020-03-30T16:00:00+02:00,1585576800000,51,1,1,11.154119,51.79324,"Ministerium für Arbeit, Soziales und Integration in Sachsen-Anhalt",https://www.sachsen-anhalt.de/bs/pressemitteilungen/?no_cache=1,regio
Sachsen-Anhalt,Jerichower Land (Kreis),15086,2020-03-30T16:00:00+02:00,1585576800000,19,0,0,12.031386,52.233773,"Ministerium für Arbeit, Soziales und Integration in Sachsen-Anhalt",https://www.sachsen-anhalt.de/bs/pressemitteilungen/?no_cache=1,regio
Sachsen-Anhalt,Mansfeld-Südharz (Kreis),15087,2020-03-30T16:00:00+02:00,1585576800000,20,0,0,11.393673,51.539926,"Ministerium für Arbeit, Soziales und Integration in Sachsen-Anhalt",https://www.sachsen-anhalt.de/bs/pressemitteilungen/?no_cache=1,regio
Sachsen-Anhalt,Saalekreis,15088,2020-03-30T16:00:00+02:00,1585576800000,58,0,0,11.847446,51.354865,"Ministerium für Arbeit, Soziales und Integration in Sachsen-Anhalt",https://www.sachsen-anhalt.de/bs/pressemitteilungen/?no_cache=1,regio
Sachsen-Anhalt,Salzlandkreis,15089,2020-03-30T16:00:00+02:00,1585576800000,39,0,0,11.681316,51.828962,"Ministerium für Arbeit, Soziales und Integration in Sachsen-Anhalt",https://www.sachsen-anhalt.de/bs/pressemitteilungen/?no_cache=1,regio
Sachsen-Anhalt,Stendal (Kreis),15090,2020-03-30T16:00:00+02:00,1585576800000,52,1,1,11.85727,52.604319,"Ministerium für Arbeit, Soziales und Integration in Sachsen-Anhalt",https://www.sachsen-anhalt.de/bs/pressemitteilungen/?no_cache=1,regio
Sachsen-Anhalt,Wittenberg (Kreis),15091,2020-03-30T16:00:00+02:00,1585576800000,81,1,1,12.663891,51.822827,"Ministerium für Arbeit, Soziales und Integration in Sachsen-Anhalt",https://www.sachsen-anhalt.de/bs/pressemitteilungen/?no_cache=1,regio
Sachsen-Anhalt,Dessau,15001,2020-03-30T16:00:00+02:00,1585576800000,20,1,0,12.2236,51.829379,"Ministerium für Arbeit, Soziales und Integration in Sachsen-Anhalt",https://www.sachsen-anhalt.de/bs/pressemitteilungen/?no_cache=1,regio
Sachsen-Anhalt,Halle,15002,2020-03-30T16:00:00+02:00,1585576800000,168,2,2,11.976793,51.488623,"Ministerium für Arbeit, Soziales und Integration in Sachsen-Anhalt",https://www.sachsen-anhalt.de/bs/pressemitteilungen/?no_cache=1,regio
Sachsen-Anhalt,Magdeburg,15003,2020-03-30T16:00:00+02:00,1585576800000,79,1,1,11.626831,52.125911,"Ministerium für Arbeit, Soziales und Integration in Sachsen-Anhalt",https://www.sachsen-anhalt.de/bs/pressemitteilungen/?no_cache=1,regio
Schleswig-Holstein,Dithmarschen (Kreis),01051,2020-03-31T09:00:00+02:00,1585638000000,26,0,0,9.13397,54.149457,Landesregierung Schleswig-Holstein,https://www.schleswig-holstein.de/DE/Landesregierung/I/Presse/_documents/Corona-Liste_Kreise.html,regio
Schleswig-Holstein,Flensburg,01001,2020-03-31T09:00:00+02:00,1585638000000,23,0,0,9.42001,54.780766,Landesregierung Schleswig-Holstein,https://www.schleswig-holstein.de/DE/Landesregierung/I/Presse/_documents/Corona-Liste_Kreise.html,regio
Schleswig-Holstein,Herzogtum Lauenburg (Kreis),01053,2020-03-31T09:00:00+02:00,1585638000000,92,0,1,10.661589,53.622154,Landesregierung Schleswig-Holstein,https://www.schleswig-holstein.de/DE/Landesregierung/I/Presse/_documents/Corona-Liste_Kreise.html,regio
Schleswig-Holstein,Kiel,01002,2020-03-31T09:00:00+02:00,1585638000000,121,0,1,10.122597,54.322148,Landesregierung Schleswig-Holstein,https://www.schleswig-holstein.de/DE/Landesregierung/I/Presse/_documents/Corona-Liste_Kreise.html,regio
Schleswig-Holstein,Lübeck,01003,2020-03-31T09:00:00+02:00,1585638000000,88,0,1,10.68237,53.870029,Landesregierung Schleswig-Holstein,https://www.schleswig-holstein.de/DE/Landesregierung/I/Presse/_documents/Corona-Liste_Kreise.html,regio
Schleswig-Holstein,Neumünster,01004,2020-03-31T09:00:00+02:00,1585638000000,19,0,0,9.982761,54.070224,Landesregierung Schleswig-Holstein,https://www.schleswig-holstein.de/DE/Landesregierung/I/Presse/_documents/Corona-Liste_Kreise.html,regio
Schleswig-Holstein,Nordfriesland (Kreis),01054,2020-03-31T09:00:00+02:00,1585638000000,40,0,0,8.82214,54.548494,Landesregierung Schleswig-Holstein,https://www.schleswig-holstein.de/DE/Landesregierung/I/Presse/_documents/Corona-Liste_Kreise.html,regio
Schleswig-Holstein,Ostholstein (Kreis),01055,2020-03-31T09:00:00+02:00,1585638000000,32,0,0,11.151146,54.462611,Landesregierung Schleswig-Holstein,https://www.schleswig-holstein.de/DE/Landesregierung/I/Presse/_documents/Corona-Liste_Kreise.html,regio
Schleswig-Holstein,Pinneberg (Kreis),01056,2020-03-31T09:00:00+02:00,1585638000000,201,0,2,9.793106,53.652223,Landesregierung Schleswig-Holstein,https://www.schleswig-holstein.de/DE/Landesregierung/I/Presse/_documents/Corona-Liste_Kreise.html,regio
Schleswig-Holstein,Plön (Kreis),01057,2020-03-31T09:00:00+02:00,1585638000000,56,0,2,10.426044,54.165443,Landesregierung Schleswig-Holstein,https://www.schleswig-holstein.de/DE/Landesregierung/I/Presse/_documents/Corona-Liste_Kreise.html,regio
Schleswig-Holstein,Rendsburg-Eckernförde (Kreis),01058,2020-03-31T09:00:00+02:00,1585638000000,125,0,2,9.774715,54.265412,Landesregierung Schleswig-Holstein,https://www.schleswig-holstein.de/DE/Landesregierung/I/Presse/_documents/Corona-Liste_Kreise.html,regio
Schleswig-Holstein,Schleswig-Flensburg (Kreis),01059,2020-03-31T09:00:00+02:00,1585638000000,67,0,0,9.518854,54.600997,Landesregierung Schleswig-Holstein,https://www.schleswig-holstein.de/DE/Landesregierung/I/Presse/_documents/Corona-Liste_Kreise.html,regio
Schleswig-Holstein,Segeberg (Kreis),01060,2020-03-31T09:00:00+02:00,1585638000000,79,0,0,10.112999,53.920937,Landesregierung Schleswig-Holstein,https://www.schleswig-holstein.de/DE/Landesregierung/I/Presse/_documents/Corona-Liste_Kreise.html,regio
Schleswig-Holstein,Steinburg (Kreis),01061,2020-03-31T09:00:00+02:00,1585638000000,40,0,0,9.509166,53.932651,Landesregierung Schleswig-Holstein,https://www.schleswig-holstein.de/DE/Landesregierung/I/Presse/_documents/Corona-Liste_Kreise.html,regio
Schleswig-Holstein,Stormarn (Kreis),01062,2020-03-31T09:00:00+02:00,1585638000000,126,0,0,10.302712,53.686293,Landesregierung Schleswig-Holstein,https://www.schleswig-holstein.de/DE/Landesregierung/I/Presse/_documents/Corona-Liste_Kreise.html,regio
Schleswig-Holstein,nicht zugeordnet,NA,2020-03-31T09:00:00+02:00,1585638000000,0,0,0,null,null,Landesregierung Schleswig-Holstein,,regio
Thüringen,Altenburger Land (Kreis),16077,2020-03-31T13:00:00+02:00,1585652400000,21,2,0,12.395581,50.964731,Gesundheitsministerium Thüringen,https://www.landesregierung-thueringen.de/corona-bulletin,regio
Thüringen,Eichsfeld (Kreis),16061,2020-03-31T13:00:00+02:00,1585652400000,52,2,1,10.228087,51.351092,Gesundheitsministerium Thüringen,https://www.landesregierung-thueringen.de/corona-bulletin,regio
Thüringen,Gotha (Kreis),16067,2020-03-31T13:00:00+02:00,1585652400000,23,0,0,10.699521,50.944469,Gesundheitsministerium Thüringen,https://www.landesregierung-thueringen.de/corona-bulletin,regio
Thüringen,Greiz (Kreis),16076,2020-03-31T13:00:00+02:00,1585652400000,132,8,3,12.203654,50.65627,Gesundheitsministerium Thüringen,https://www.landesregierung-thueringen.de/corona-bulletin,regio
Thüringen,Hildburghausen (Kreis),16069,2020-03-31T13:00:00+02:00,1585652400000,7,0,0,10.732158,50.427784,Gesundheitsministerium Thüringen,https://www.landesregierung-thueringen.de/corona-bulletin,regio
Thüringen,Ilm-Kreis,16070,2020-03-31T13:00:00+02:00,1585652400000,61,3,1,10.961674,50.778331,Gesundheitsministerium Thüringen,https://www.landesregierung-thueringen.de/corona-bulletin,regio
Thüringen,Kyffhäuserkreis,16065,2020-03-31T13:00:00+02:00,1585652400000,19,6,0,10.910092,51.303398,Gesundheitsministerium Thüringen,https://www.landesregierung-thueringen.de/corona-bulletin,regio
Thüringen,Nordhausen (Kreis),16062,2020-03-31T13:00:00+02:00,1585652400000,15,1,0,10.800572,51.493134,Gesundheitsministerium Thüringen,https://www.landesregierung-thueringen.de/corona-bulletin,regio
Thüringen,Saale-Holzland-Kreis,16074,2020-03-31T13:00:00+02:00,1585652400000,29,7,0,11.776974,50.93231,Gesundheitsministerium Thüringen,https://www.landesregierung-thueringen.de/corona-bulletin,regio
Thüringen,Saale-Orla-Kreis,16075,2020-03-31T13:00:00+02:00,1585652400000,34,3,0,11.75604,50.58437,Gesundheitsministerium Thüringen,https://www.landesregierung-thueringen.de/corona-bulletin,regio
Thüringen,Saalfeld-Rudolstadt (Kreis),16073,2020-03-31T13:00:00+02:00,1585652400000,39,3,0,11.304345,50.64649,Gesundheitsministerium Thüringen,https://www.landesregierung-thueringen.de/corona-bulletin,regio
Thüringen,Schmalkalden-Meiningen (Kreis),16066,2020-03-31T13:00:00+02:00,1585652400000,31,4,0,10.404736,50.638884,Gesundheitsministerium Thüringen,https://www.landesregierung-thueringen.de/corona-bulletin,regio
Thüringen,Sömmerda(Kreis),16068,2020-03-31T13:00:00+02:00,1585652400000,23,2,0,11.125218,51.163614,Gesundheitsministerium Thüringen,https://www.landesregierung-thueringen.de/corona-bulletin,regio
Thüringen,Sonneberg (Kreis),16072,2020-03-31T13:00:00+02:00,1585652400000,23,1,0,11.182257,50.357941,Gesundheitsministerium Thüringen,https://www.landesregierung-thueringen.de/corona-bulletin,regio
