parent,label,updated,date,confirmed,recovered,deaths,lon,lat,source,source_url,scraper
USA,Texas,1584558874000,2020-03-18T20:14:34+01:00,166,0,3,-97.563461,31.054487,Coronavirus COVID-19 Global Cases by Johns Hopkins CSSE,https://www.arcgis.com/apps/opsdashboard/index.html#/bda7594740fd40299423467b48e9ecf6,hopkins.arcgis
USA,Virginia,1584557583000,2020-03-18T19:53:03+01:00,77,0,2,-78.17,37.7693,2019 Novel Coronavirus COVID-19 (2019-nCoV) Data Repository by Johns Hopkins CSSE,https://github.com/CSSEGISandData/COVID-19,hopkins.github
global,Montenegro,1584557583000,2020-03-18T19:53:03+01:00,1,0,0,19.3744,42.7087,2019 Novel Coronavirus COVID-19 (2019-nCoV) Data Repository by Johns Hopkins CSSE,https://github.com/CSSEGISandData/COVID-19,hopkins.github
global,Algerien,1584558873000,2020-03-18T20:14:33+01:00,72,12,6,1.6596,28.0339,Coronavirus COVID-19 Global Cases by Johns Hopkins CSSE,https://www.arcgis.com/apps/opsdashboard/index.html#/bda7594740fd40299423467b48e9ecf6,hopkins.arcgis
global,Mauritius,1584557583000,2020-03-18T19:53:03+01:00,3,0,0,57.5,-20.2,2019 Novel Coronavirus COVID-19 (2019-nCoV) Data Repository by Johns Hopkins CSSE,https://github.com/CSSEGISandData/COVID-19,hopkins.github
USA,Montana,1584559983000,2020-03-18T20:33:03+01:00,11,0,0,-110.454353,46.921925,Coronavirus COVID-19 Global Cases by Johns Hopkins CSSE,https://www.arcgis.com/apps/opsdashboard/index.html#/bda7594740fd40299423467b48e9ecf6,hopkins.arcgis
USA,New York,1584559983000,2020-03-18T20:33:03+01:00,2495,0,16,-74.948051,42.165726,Coronavirus COVID-19 Global Cases by Johns Hopkins CSSE,https://www.arcgis.com/apps/opsdashboard/index.html#/bda7594740fd40299423467b48e9ecf6,hopkins.arcgis
USA,US,1584559983000,2020-03-18T20:33:03+01:00,1,106,0,-95.7129,37.0902,Coronavirus COVID-19 Global Cases by Johns Hopkins CSSE,https://www.arcgis.com/apps/opsdashboard/index.html#/bda7594740fd40299423467b48e9ecf6,hopkins.arcgis
USA,Rhode Island,1584559983000,2020-03-18T20:33:03+01:00,33,0,0,-71.51178,41.680893,Coronavirus COVID-19 Global Cases by Johns Hopkins CSSE,https://www.arcgis.com/apps/opsdashboard/index.html#/bda7594740fd40299423467b48e9ecf6,hopkins.arcgis
USA,North Dakota,1584559983000,2020-03-18T20:33:03+01:00,6,0,0,-99.784012,47.528912,Coronavirus COVID-19 Global Cases by Johns Hopkins CSSE,https://www.arcgis.com/apps/opsdashboard/index.html#/bda7594740fd40299423467b48e9ecf6,hopkins.arcgis
USA,Louisiana,1584559983000,2020-03-18T20:33:03+01:00,257,0,4,-91.867805,31.169546,Coronavirus COVID-19 Global Cases by Johns Hopkins CSSE,https://www.arcgis.com/apps/opsdashboard/index.html#/bda7594740fd40299423467b48e9ecf6,hopkins.arcgis
USA,Arkansas,1584559983000,2020-03-18T20:33:03+01:00,33,0,0,-92.373123,34.969704,Coronavirus COVID-19 Global Cases by Johns Hopkins CSSE,https://www.arcgis.com/apps/opsdashboard/index.html#/bda7594740fd40299423467b48e9ecf6,hopkins.arcgis
USA,Alabama,1584559983000,2020-03-18T20:33:03+01:00,46,0,0,-86.9023,32.3182,Coronavirus COVID-19 Global Cases by Johns Hopkins CSSE,https://www.arcgis.com/apps/opsdashboard/index.html#/bda7594740fd40299423467b48e9ecf6,hopkins.arcgis
USA,Maine,1584559983000,2020-03-18T20:33:03+01:00,42,0,0,-69.381927,44.693947,Coronavirus COVID-19 Global Cases by Johns Hopkins CSSE,https://www.arcgis.com/apps/opsdashboard/index.html#/bda7594740fd40299423467b48e9ecf6,hopkins.arcgis
USA,Vermont,1584559983000,2020-03-18T20:33:03+01:00,18,0,0,-72.710686,44.045876,Coronavirus COVID-19 Global Cases by Johns Hopkins CSSE,https://www.arcgis.com/apps/opsdashboard/index.html#/bda7594740fd40299423467b48e9ecf6,hopkins.arcgis
USA,Missouri,1584559983000,2020-03-18T20:33:03+01:00,18,0,0,-92.288368,38.456085,Coronavirus COVID-19 Global Cases by Johns Hopkins CSSE,https://www.arcgis.com/apps/opsdashboard/index.html#/bda7594740fd40299423467b48e9ecf6,hopkins.arcgis
USA,Delaware,1584559983000,2020-03-18T20:33:03+01:00,19,0,0,-75.507141,39.318523,Coronavirus COVID-19 Global Cases by Johns Hopkins CSSE,https://www.arcgis.com/apps/opsdashboard/index.html#/bda7594740fd40299423467b48e9ecf6,hopkins.arcgis
USA,Indiana,1584559983000,2020-03-18T20:33:03+01:00,39,0,2,-86.258278,39.849426,Coronavirus COVID-19 Global Cases by Johns Hopkins CSSE,https://www.arcgis.com/apps/opsdashboard/index.html#/bda7594740fd40299423467b48e9ecf6,hopkins.arcgis
USA,Arizona,1584559983000,2020-03-18T20:33:03+01:00,27,0,0,-111.431221,33.729759,Coronavirus COVID-19 Global Cases by Johns Hopkins CSSE,https://www.arcgis.com/apps/opsdashboard/index.html#/bda7594740fd40299423467b48e9ecf6,hopkins.arcgis
USA,Mississippi,1584559983000,2020-03-18T20:33:03+01:00,34,0,0,-89.678696,32.741646,Coronavirus COVID-19 Global Cases by Johns Hopkins CSSE,https://www.arcgis.com/apps/opsdashboard/index.html#/bda7594740fd40299423467b48e9ecf6,hopkins.arcgis
global,Oman,1584559982000,2020-03-18T20:33:02+01:00,39,12,0,55.9754,21.4735,Coronavirus COVID-19 Global Cases by Johns Hopkins CSSE,https://www.arcgis.com/apps/opsdashboard/index.html#/bda7594740fd40299423467b48e9ecf6,hopkins.arcgis
USA,California,1584558874000,2020-03-18T20:14:34+01:00,751,0,13,-119.681564,36.116203,Coronavirus COVID-19 Global Cases by Johns Hopkins CSSE,https://www.arcgis.com/apps/opsdashboard/index.html#/bda7594740fd40299423467b48e9ecf6,hopkins.arcgis
USA,Tennessee,1584558874000,2020-03-18T20:14:34+01:00,79,0,0,-86.692345,35.747845,Coronavirus COVID-19 Global Cases by Johns Hopkins CSSE,https://www.arcgis.com/apps/opsdashboard/index.html#/bda7594740fd40299423467b48e9ecf6,hopkins.arcgis
USA,Minnesota,1584558874000,2020-03-18T20:14:34+01:00,77,0,0,-93.900192,45.694454,Coronavirus COVID-19 Global Cases by Johns Hopkins CSSE,https://www.arcgis.com/apps/opsdashboard/index.html#/bda7594740fd40299423467b48e9ecf6,hopkins.arcgis
USA,Pennsylvania,1584558874000,2020-03-18T20:14:34+01:00,152,0,0,-77.209755,40.590752,Coronavirus COVID-19 Global Cases by Johns Hopkins CSSE,https://www.arcgis.com/apps/opsdashboard/index.html#/bda7594740fd40299423467b48e9ecf6,hopkins.arcgis
USA,Wisconsin,1584558874000,2020-03-18T20:14:34+01:00,92,0,0,-89.616508,44.268543,Coronavirus COVID-19 Global Cases by Johns Hopkins CSSE,https://www.arcgis.com/apps/opsdashboard/index.html#/bda7594740fd40299423467b48e9ecf6,hopkins.arcgis
USA,Ohio,1584558874000,2020-03-18T20:14:34+01:00,86,0,0,-82.764915,40.388783,Coronavirus COVID-19 Global Cases by Johns Hopkins CSSE,https://www.arcgis.com/apps/opsdashboard/index.html#/bda7594740fd40299423467b48e9ecf6,hopkins.arcgis
USA,Georgia,1584558874000,2020-03-18T20:14:34+01:00,199,0,3,-83.643074,33.040619,Coronavirus COVID-19 Global Cases by Johns Hopkins CSSE,https://www.arcgis.com/apps/opsdashboard/index.html#/bda7594740fd40299423467b48e9ecf6,hopkins.arcgis
USA,North Carolina,1584558874000,2020-03-18T20:14:34+01:00,70,0,0,-79.806419,35.630066,Coronavirus COVID-19 Global Cases by Johns Hopkins CSSE,https://www.arcgis.com/apps/opsdashboard/index.html#/bda7594740fd40299423467b48e9ecf6,hopkins.arcgis
USA,Illinois,1584558874000,2020-03-18T20:14:34+01:00,162,0,1,-88.986137,40.349457,Coronavirus COVID-19 Global Cases by Johns Hopkins CSSE,https://www.arcgis.com/apps/opsdashboard/index.html#/bda7594740fd40299423467b48e9ecf6,hopkins.arcgis
USA,Nevada,1584558874000,2020-03-18T20:14:34+01:00,55,0,1,-117.055374,38.313515,Coronavirus COVID-19 Global Cases by Johns Hopkins CSSE,https://www.arcgis.com/apps/opsdashboard/index.html#/bda7594740fd40299423467b48e9ecf6,hopkins.arcgis
USA,Florida,1584558874000,2020-03-18T20:14:34+01:00,314,0,7,-81.686783,27.766279,Coronavirus COVID-19 Global Cases by Johns Hopkins CSSE,https://www.arcgis.com/apps/opsdashboard/index.html#/bda7594740fd40299423467b48e9ecf6,hopkins.arcgis
USA,Maryland,1584558874000,2020-03-18T20:14:34+01:00,85,0,0,-76.802101,39.063946,Coronavirus COVID-19 Global Cases by Johns Hopkins CSSE,https://www.arcgis.com/apps/opsdashboard/index.html#/bda7594740fd40299423467b48e9ecf6,hopkins.arcgis
USA,Michigan,1584558874000,2020-03-18T20:14:34+01:00,83,0,0,-84.536095,43.326618,Coronavirus COVID-19 Global Cases by Johns Hopkins CSSE,https://www.arcgis.com/apps/opsdashboard/index.html#/bda7594740fd40299423467b48e9ecf6,hopkins.arcgis
USA,Guam,1584555273000,2020-03-18T19:14:33+01:00,0,0,0,144.7937,13.4443,2019 Novel Coronavirus COVID-19 (2019-nCoV) Data Repository by Johns Hopkins CSSE,https://github.com/CSSEGISandData/COVID-19,hopkins.github
global,Liechtenstein,1584558873000,2020-03-18T20:14:33+01:00,28,0,0,9.5554,47.166,Coronavirus COVID-19 Global Cases by Johns Hopkins CSSE,https://www.arcgis.com/apps/opsdashboard/index.html#/bda7594740fd40299423467b48e9ecf6,hopkins.arcgis
global,Brasilien,1584558869000,2020-03-18T20:14:29+01:00,372,2,3,-51.9253,-14.235,Coronavirus COVID-19 Global Cases by Johns Hopkins CSSE,https://www.arcgis.com/apps/opsdashboard/index.html#/bda7594740fd40299423467b48e9ecf6,hopkins.arcgis
global,Katar,1584558869000,2020-03-18T20:14:29+01:00,452,4,0,51.1839,25.3548,Coronavirus COVID-19 Global Cases by Johns Hopkins CSSE,https://www.arcgis.com/apps/opsdashboard/index.html#/bda7594740fd40299423467b48e9ecf6,hopkins.arcgis
global,Pakistan,1584558869000,2020-03-18T20:14:29+01:00,299,2,0,69.3451,30.3753,Coronavirus COVID-19 Global Cases by Johns Hopkins CSSE,https://www.arcgis.com/apps/opsdashboard/index.html#/bda7594740fd40299423467b48e9ecf6,hopkins.arcgis
Kanada,New Brunswick,1584556383000,2020-03-18T19:33:03+01:00,11,0,0,-66.4619,46.5653,Coronavirus COVID-19 Global Cases by Johns Hopkins CSSE,https://www.arcgis.com/apps/opsdashboard/index.html#/bda7594740fd40299423467b48e9ecf6,hopkins.arcgis
global,Frankreich,1584556382000,2020-03-18T19:33:02+01:00,9043,12,148,2.2137,46.2276,Coronavirus COVID-19 Global Cases by Johns Hopkins CSSE,https://www.arcgis.com/apps/opsdashboard/index.html#/bda7594740fd40299423467b48e9ecf6,hopkins.arcgis
Kanada,Nova Scotia,1584553983000,2020-03-18T18:53:03+01:00,12,0,0,-63.7443,44.682,Coronavirus COVID-19 Global Cases by Johns Hopkins CSSE,https://www.arcgis.com/apps/opsdashboard/index.html#/bda7594740fd40299423467b48e9ecf6,hopkins.arcgis
Kanada,Quebec,1584553983000,2020-03-18T18:53:03+01:00,94,0,0,-73.5491,52.9399,Coronavirus COVID-19 Global Cases by Johns Hopkins CSSE,https://www.arcgis.com/apps/opsdashboard/index.html#/bda7594740fd40299423467b48e9ecf6,hopkins.arcgis
global,Schweden,1584553982000,2020-03-18T18:53:02+01:00,1279,1,10,18.6435,60.1282,Coronavirus COVID-19 Global Cases by Johns Hopkins CSSE,https://www.arcgis.com/apps/opsdashboard/index.html#/bda7594740fd40299423467b48e9ecf6,hopkins.arcgis
Kanada,Ontario,1584552786000,2020-03-18T18:33:06+01:00,221,5,1,-85.3232,51.2538,Coronavirus COVID-19 Global Cases by Johns Hopkins CSSE,https://www.arcgis.com/apps/opsdashboard/index.html#/bda7594740fd40299423467b48e9ecf6,hopkins.arcgis
global,Italien,1584552785000,2020-03-18T18:33:05+01:00,35713,4025,2978,12.5674,41.8719,Coronavirus COVID-19 Global Cases by Johns Hopkins CSSE,https://www.arcgis.com/apps/opsdashboard/index.html#/bda7594740fd40299423467b48e9ecf6,hopkins.arcgis
Dänemark,Färöer,1584550775000,2020-03-18T17:59:35+01:00,58,0,0,-6.9118,61.8926,Coronavirus COVID-19 Global Cases by Johns Hopkins CSSE,https://www.arcgis.com/apps/opsdashboard/index.html#/bda7594740fd40299423467b48e9ecf6,hopkins.arcgis
global,Dänemark,1584550775000,2020-03-18T17:59:35+01:00,1057,1,4,9.5018,56.2639,Coronavirus COVID-19 Global Cases by Johns Hopkins CSSE,https://www.arcgis.com/apps/opsdashboard/index.html#/bda7594740fd40299423467b48e9ecf6,hopkins.arcgis
global,Kuba,1584550775000,2020-03-18T17:59:35+01:00,7,0,1,-77.7812,21.5218,Coronavirus COVID-19 Global Cases by Johns Hopkins CSSE,https://www.arcgis.com/apps/opsdashboard/index.html#/bda7594740fd40299423467b48e9ecf6,hopkins.arcgis
global,Rumänien,1584550774000,2020-03-18T17:59:34+01:00,260,19,0,24.9668,45.9432,Coronavirus COVID-19 Global Cases by Johns Hopkins CSSE,https://www.arcgis.com/apps/opsdashboard/index.html#/bda7594740fd40299423467b48e9ecf6,hopkins.arcgis
global,Peru,1584550774000,2020-03-18T17:59:34+01:00,145,1,0,-75.0152,-9.19,Coronavirus COVID-19 Global Cases by Johns Hopkins CSSE,https://www.arcgis.com/apps/opsdashboard/index.html#/bda7594740fd40299423467b48e9ecf6,hopkins.arcgis
global,Griechenland,1584550774000,2020-03-18T17:59:34+01:00,418,8,5,21.8243,39.0742,Coronavirus COVID-19 Global Cases by Johns Hopkins CSSE,https://www.arcgis.com/apps/opsdashboard/index.html#/bda7594740fd40299423467b48e9ecf6,hopkins.arcgis
USA,Colorado,1584546789000,2020-03-18T16:53:09+01:00,184,0,2,-105.311104,39.059811,Coronavirus COVID-19 Global Cases by Johns Hopkins CSSE,https://www.arcgis.com/apps/opsdashboard/index.html#/bda7594740fd40299423467b48e9ecf6,hopkins.arcgis
global,Norwegen,1584546789000,2020-03-18T16:53:09+01:00,1550,1,6,8.4689,60.472,Coronavirus COVID-19 Global Cases by Johns Hopkins CSSE,https://www.arcgis.com/apps/opsdashboard/index.html#/bda7594740fd40299423467b48e9ecf6,hopkins.arcgis
global,Vietnam,1584545595000,2020-03-18T16:33:15+01:00,75,16,0,108.2772,14.0583,Coronavirus COVID-19 Global Cases by Johns Hopkins CSSE,https://www.arcgis.com/apps/opsdashboard/index.html#/bda7594740fd40299423467b48e9ecf6,hopkins.arcgis
global,Bulgarien,1584545595000,2020-03-18T16:33:15+01:00,92,0,2,25.4858,42.7339,Coronavirus COVID-19 Global Cases by Johns Hopkins CSSE,https://www.arcgis.com/apps/opsdashboard/index.html#/bda7594740fd40299423467b48e9ecf6,hopkins.arcgis
global,Österreich,1584543185000,2020-03-18T15:53:05+01:00,1646,9,4,14.5501,47.5162,Coronavirus COVID-19 Global Cases by Johns Hopkins CSSE,https://www.arcgis.com/apps/opsdashboard/index.html#/bda7594740fd40299423467b48e9ecf6,hopkins.arcgis
global,Großbritannien,1584543185000,2020-03-18T15:53:05+01:00,2626,65,71,-3.436,55.3781,Coronavirus COVID-19 Global Cases by Johns Hopkins CSSE,https://www.arcgis.com/apps/opsdashboard/index.html#/bda7594740fd40299423467b48e9ecf6,hopkins.arcgis
global,Schweiz,1584543185000,2020-03-18T15:53:05+01:00,3028,15,28,8.2275,46.8182,Coronavirus COVID-19 Global Cases by Johns Hopkins CSSE,https://www.arcgis.com/apps/opsdashboard/index.html#/bda7594740fd40299423467b48e9ecf6,hopkins.arcgis
global,Kolumbien,1584543185000,2020-03-18T15:53:05+01:00,93,1,0,-74.2973,4.5709,Coronavirus COVID-19 Global Cases by Johns Hopkins CSSE,https://www.arcgis.com/apps/opsdashboard/index.html#/bda7594740fd40299423467b48e9ecf6,hopkins.arcgis
global,Jordanien,1584543185000,2020-03-18T15:53:05+01:00,52,1,0,36.2384,30.5852,Coronavirus COVID-19 Global Cases by Johns Hopkins CSSE,https://www.arcgis.com/apps/opsdashboard/index.html#/bda7594740fd40299423467b48e9ecf6,hopkins.arcgis
Frankreich,Guadeloupe,1584538395000,2020-03-18T14:33:15+01:00,0,0,0,-61.5833,16.25,2019 Novel Coronavirus COVID-19 (2019-nCoV) Data Repository by Johns Hopkins CSSE,https://github.com/CSSEGISandData/COVID-19,hopkins.github
Frankreich,Mayotte,1584538395000,2020-03-18T14:33:15+01:00,0,0,0,45.1383,-12.8431,2019 Novel Coronavirus COVID-19 (2019-nCoV) Data Repository by Johns Hopkins CSSE,https://github.com/CSSEGISandData/COVID-19,hopkins.github
global,Sambia,1584541995000,2020-03-18T15:33:15+01:00,2,0,0,28.2833,-15.4167,Coronavirus COVID-19 Global Cases by Johns Hopkins CSSE,https://www.arcgis.com/apps/opsdashboard/index.html#/bda7594740fd40299423467b48e9ecf6,hopkins.arcgis
global,Äquatorialguinea,1584541995000,2020-03-18T15:33:15+01:00,4,0,0,10.2679,1.6508,Coronavirus COVID-19 Global Cases by Johns Hopkins CSSE,https://www.arcgis.com/apps/opsdashboard/index.html#/bda7594740fd40299423467b48e9ecf6,hopkins.arcgis
global,Israel,1584541995000,2020-03-18T15:33:15+01:00,433,11,0,34.8516,31.0461,Coronavirus COVID-19 Global Cases by Johns Hopkins CSSE,https://www.arcgis.com/apps/opsdashboard/index.html#/bda7594740fd40299423467b48e9ecf6,hopkins.arcgis
Frankreich,Réunion,1584538395000,2020-03-18T14:33:15+01:00,0,0,0,55.2471,-21.1351,2019 Novel Coronavirus COVID-19 (2019-nCoV) Data Repository by Johns Hopkins CSSE,https://github.com/CSSEGISandData/COVID-19,hopkins.github
Frankreich,Französisch-Guyana,1584538395000,2020-03-18T14:33:15+01:00,0,0,0,-53,4,2019 Novel Coronavirus COVID-19 (2019-nCoV) Data Repository by Johns Hopkins CSSE,https://github.com/CSSEGISandData/COVID-19,hopkins.github
USA,New Jersey,1584540836000,2020-03-18T15:13:56+01:00,267,0,3,-74.521011,40.298904,Coronavirus COVID-19 Global Cases by Johns Hopkins CSSE,https://www.arcgis.com/apps/opsdashboard/index.html#/bda7594740fd40299423467b48e9ecf6,hopkins.arcgis
global,Benin,1584540836000,2020-03-18T15:13:56+01:00,2,0,0,2.3158,9.3077,Coronavirus COVID-19 Global Cases by Johns Hopkins CSSE,https://www.arcgis.com/apps/opsdashboard/index.html#/bda7594740fd40299423467b48e9ecf6,hopkins.arcgis
global,Gambia,1584540836000,2020-03-18T15:13:56+01:00,1,0,0,-15.3101,13.4432,Coronavirus COVID-19 Global Cases by Johns Hopkins CSSE,https://www.arcgis.com/apps/opsdashboard/index.html#/bda7594740fd40299423467b48e9ecf6,hopkins.arcgis
USA,Washington,1584540836000,2020-03-18T15:13:56+01:00,1014,0,55,-121.490494,47.400902,Coronavirus COVID-19 Global Cases by Johns Hopkins CSSE,https://www.arcgis.com/apps/opsdashboard/index.html#/bda7594740fd40299423467b48e9ecf6,hopkins.arcgis
USA,Kentucky,1584540836000,2020-03-18T15:13:56+01:00,27,0,1,-84.670067,37.66814,Coronavirus COVID-19 Global Cases by Johns Hopkins CSSE,https://www.arcgis.com/apps/opsdashboard/index.html#/bda7594740fd40299423467b48e9ecf6,hopkins.arcgis
USA,Massachusetts,1584540836000,2020-03-18T15:13:56+01:00,218,0,0,-71.530106,42.230171,Coronavirus COVID-19 Global Cases by Johns Hopkins CSSE,https://www.arcgis.com/apps/opsdashboard/index.html#/bda7594740fd40299423467b48e9ecf6,hopkins.arcgis
Großbritannien,Gibraltar,1584540822000,2020-03-18T15:13:42+01:00,8,2,0,-5.3536,36.1408,Coronavirus COVID-19 Global Cases by Johns Hopkins CSSE,https://www.arcgis.com/apps/opsdashboard/index.html#/bda7594740fd40299423467b48e9ecf6,hopkins.arcgis
global,Slowakei,1584540794000,2020-03-18T15:13:14+01:00,105,0,1,19.699,48.669,Coronavirus COVID-19 Global Cases by Johns Hopkins CSSE,https://www.arcgis.com/apps/opsdashboard/index.html#/bda7594740fd40299423467b48e9ecf6,hopkins.arcgis
USA,Nebraska,1584539583000,2020-03-18T14:53:03+01:00,24,0,0,-98.268082,41.12537,Coronavirus COVID-19 Global Cases by Johns Hopkins CSSE,https://www.arcgis.com/apps/opsdashboard/index.html#/bda7594740fd40299423467b48e9ecf6,hopkins.arcgis
USA,Oregon,1584539583000,2020-03-18T14:53:03+01:00,68,0,2,-122.070938,44.572021,Coronavirus COVID-19 Global Cases by Johns Hopkins CSSE,https://www.arcgis.com/apps/opsdashboard/index.html#/bda7594740fd40299423467b48e9ecf6,hopkins.arcgis
USA,Wyoming,1584539583000,2020-03-18T14:53:03+01:00,15,0,0,-107.30249,42.755966,Coronavirus COVID-19 Global Cases by Johns Hopkins CSSE,https://www.arcgis.com/apps/opsdashboard/index.html#/bda7594740fd40299423467b48e9ecf6,hopkins.arcgis
global,Polen,1584538392000,2020-03-18T14:33:12+01:00,251,13,5,19.1451,51.9194,Coronavirus COVID-19 Global Cases by Johns Hopkins CSSE,https://www.arcgis.com/apps/opsdashboard/index.html#/bda7594740fd40299423467b48e9ecf6,hopkins.arcgis
global,Indien,1584538392000,2020-03-18T14:33:12+01:00,156,14,3,78.9629,20.5937,Coronavirus COVID-19 Global Cases by Johns Hopkins CSSE,https://www.arcgis.com/apps/opsdashboard/index.html#/bda7594740fd40299423467b48e9ecf6,hopkins.arcgis
global,Singapur,1584538392000,2020-03-18T14:33:12+01:00,313,114,0,103.8198,1.3521,Coronavirus COVID-19 Global Cases by Johns Hopkins CSSE,https://www.arcgis.com/apps/opsdashboard/index.html#/bda7594740fd40299423467b48e9ecf6,hopkins.arcgis
global,Chile,1584538392000,2020-03-18T14:33:12+01:00,238,0,0,-71.543,-35.6751,Coronavirus COVID-19 Global Cases by Johns Hopkins CSSE,https://www.arcgis.com/apps/opsdashboard/index.html#/bda7594740fd40299423467b48e9ecf6,hopkins.arcgis
global,Niederlande,1584537195000,2020-03-18T14:13:15+01:00,2051,2,58,5.2913,52.1326,Coronavirus COVID-19 Global Cases by Johns Hopkins CSSE,https://www.arcgis.com/apps/opsdashboard/index.html#/bda7594740fd40299423467b48e9ecf6,hopkins.arcgis
global,Spanien,1584537193000,2020-03-18T14:13:13+01:00,13910,1081,623,-3.7492,40.4637,Coronavirus COVID-19 Global Cases by Johns Hopkins CSSE,https://www.arcgis.com/apps/opsdashboard/index.html#/bda7594740fd40299423467b48e9ecf6,hopkins.arcgis
global,Sri Lanka,1584537193000,2020-03-18T14:13:13+01:00,51,1,0,80.7718,7.8731,Coronavirus COVID-19 Global Cases by Johns Hopkins CSSE,https://www.arcgis.com/apps/opsdashboard/index.html#/bda7594740fd40299423467b48e9ecf6,hopkins.arcgis
global,Finnland,1584537193000,2020-03-18T14:13:13+01:00,336,10,0,25.7482,61.9241,Coronavirus COVID-19 Global Cases by Johns Hopkins CSSE,https://www.arcgis.com/apps/opsdashboard/index.html#/bda7594740fd40299423467b48e9ecf6,hopkins.arcgis
global,Nordmazedonien,1584534783000,2020-03-18T13:33:03+01:00,35,1,0,21.7453,41.6086,Coronavirus COVID-19 Global Cases by Johns Hopkins CSSE,https://www.arcgis.com/apps/opsdashboard/index.html#/bda7594740fd40299423467b48e9ecf6,hopkins.arcgis
global,Albanien,1584534783000,2020-03-18T13:33:03+01:00,59,0,2,20.1683,41.1533,Coronavirus COVID-19 Global Cases by Johns Hopkins CSSE,https://www.arcgis.com/apps/opsdashboard/index.html#/bda7594740fd40299423467b48e9ecf6,hopkins.arcgis
global,Djibouti,1584534783000,2020-03-18T13:33:03+01:00,1,0,0,42.5903,11.8251,Coronavirus COVID-19 Global Cases by Johns Hopkins CSSE,https://www.arcgis.com/apps/opsdashboard/index.html#/bda7594740fd40299423467b48e9ecf6,hopkins.arcgis
global,Tunesien,1584534783000,2020-03-18T13:33:03+01:00,29,0,0,9.5375,33.8869,Coronavirus COVID-19 Global Cases by Johns Hopkins CSSE,https://www.arcgis.com/apps/opsdashboard/index.html#/bda7594740fd40299423467b48e9ecf6,hopkins.arcgis
global,Burkina Faso,1584534783000,2020-03-18T13:33:03+01:00,20,0,1,-1.5616,12.2383,Coronavirus COVID-19 Global Cases by Johns Hopkins CSSE,https://www.arcgis.com/apps/opsdashboard/index.html#/bda7594740fd40299423467b48e9ecf6,hopkins.arcgis
global,Nigeria,1584534783000,2020-03-18T13:33:03+01:00,8,1,0,8.6753,9.082,Coronavirus COVID-19 Global Cases by Johns Hopkins CSSE,https://www.arcgis.com/apps/opsdashboard/index.html#/bda7594740fd40299423467b48e9ecf6,hopkins.arcgis
global,Irak,1584534782000,2020-03-18T13:33:02+01:00,164,43,12,43.6793,33.2232,Coronavirus COVID-19 Global Cases by Johns Hopkins CSSE,https://www.arcgis.com/apps/opsdashboard/index.html#/bda7594740fd40299423467b48e9ecf6,hopkins.arcgis
global,Portugal,1584534782000,2020-03-18T13:33:02+01:00,448,3,2,-8.2245,39.3999,Coronavirus COVID-19 Global Cases by Johns Hopkins CSSE,https://www.arcgis.com/apps/opsdashboard/index.html#/bda7594740fd40299423467b48e9ecf6,hopkins.arcgis
global,Bahrain,1584534782000,2020-03-18T13:33:02+01:00,256,88,1,50.5577,26.0667,Coronavirus COVID-19 Global Cases by Johns Hopkins CSSE,https://www.arcgis.com/apps/opsdashboard/index.html#/bda7594740fd40299423467b48e9ecf6,hopkins.arcgis
global,Russland,1584534782000,2020-03-18T13:33:02+01:00,147,8,0,105.3188,61.524,Coronavirus COVID-19 Global Cases by Johns Hopkins CSSE,https://www.arcgis.com/apps/opsdashboard/index.html#/bda7594740fd40299423467b48e9ecf6,hopkins.arcgis
global,Belgien,1584534782000,2020-03-18T13:33:02+01:00,1486,31,14,4.4699,50.5039,Coronavirus COVID-19 Global Cases by Johns Hopkins CSSE,https://www.arcgis.com/apps/opsdashboard/index.html#/bda7594740fd40299423467b48e9ecf6,hopkins.arcgis
global,Iran,1584534782000,2020-03-18T13:33:02+01:00,17361,5389,1135,53.688,32.4279,Coronavirus COVID-19 Global Cases by Johns Hopkins CSSE,https://www.arcgis.com/apps/opsdashboard/index.html#/bda7594740fd40299423467b48e9ecf6,hopkins.arcgis
global,Island,1584534782000,2020-03-18T13:33:02+01:00,250,5,1,-19.0208,64.9631,Coronavirus COVID-19 Global Cases by Johns Hopkins CSSE,https://www.arcgis.com/apps/opsdashboard/index.html#/bda7594740fd40299423467b48e9ecf6,hopkins.arcgis
global,Japan,1584534782000,2020-03-18T13:33:02+01:00,889,144,29,138.2529,36.2048,Coronavirus COVID-19 Global Cases by Johns Hopkins CSSE,https://www.arcgis.com/apps/opsdashboard/index.html#/bda7594740fd40299423467b48e9ecf6,hopkins.arcgis
Australien,Western Australia,1584533590000,2020-03-18T13:13:10+01:00,35,0,1,115.8605,-31.9505,Coronavirus COVID-19 Global Cases by Johns Hopkins CSSE,https://www.arcgis.com/apps/opsdashboard/index.html#/bda7594740fd40299423467b48e9ecf6,hopkins.arcgis
global,Sudan,1584533589000,2020-03-18T13:13:09+01:00,2,0,1,30.2176,12.8628,Coronavirus COVID-19 Global Cases by Johns Hopkins CSSE,https://www.arcgis.com/apps/opsdashboard/index.html#/bda7594740fd40299423467b48e9ecf6,hopkins.arcgis
Australien,Victoria,1584533589000,2020-03-18T13:13:09+01:00,121,8,0,144.9631,-37.8136,Coronavirus COVID-19 Global Cases by Johns Hopkins CSSE,https://www.arcgis.com/apps/opsdashboard/index.html#/bda7594740fd40299423467b48e9ecf6,hopkins.arcgis
China,Hubei (Wuhan),1584533589000,2020-03-18T13:13:09+01:00,67800,56927,3122,112.270692167452,30.9756403482891,Coronavirus COVID-19 Global Cases by Johns Hopkins CSSE,https://www.arcgis.com/apps/opsdashboard/index.html#/bda7594740fd40299423467b48e9ecf6,hopkins.arcgis
global,Bosnien und Herzegowina,1584533589000,2020-03-18T13:13:09+01:00,38,2,0,17.6791,43.9159,Coronavirus COVID-19 Global Cases by Johns Hopkins CSSE,https://www.arcgis.com/apps/opsdashboard/index.html#/bda7594740fd40299423467b48e9ecf6,hopkins.arcgis
Australien,New South Wales,1584533589000,2020-03-18T13:13:09+01:00,267,4,5,151.2093,-33.8688,Coronavirus COVID-19 Global Cases by Johns Hopkins CSSE,https://www.arcgis.com/apps/opsdashboard/index.html#/bda7594740fd40299423467b48e9ecf6,hopkins.arcgis
global,Usbekistan,1584533589000,2020-03-18T13:13:09+01:00,15,0,0,64.5853,41.3775,Coronavirus COVID-19 Global Cases by Johns Hopkins CSSE,https://www.arcgis.com/apps/opsdashboard/index.html#/bda7594740fd40299423467b48e9ecf6,hopkins.arcgis
global,Paraguay,1584532384000,2020-03-18T12:53:04+01:00,11,0,0,-58.4438,-23.4425,Coronavirus COVID-19 Global Cases by Johns Hopkins CSSE,https://www.arcgis.com/apps/opsdashboard/index.html#/bda7594740fd40299423467b48e9ecf6,hopkins.arcgis
Australien,Tasmania,1584532384000,2020-03-18T12:53:04+01:00,10,0,0,145.9707,-41.4545,Coronavirus COVID-19 Global Cases by Johns Hopkins CSSE,https://www.arcgis.com/apps/opsdashboard/index.html#/bda7594740fd40299423467b48e9ecf6,hopkins.arcgis
Großbritannien,Montserrat,1584532384000,2020-03-18T12:53:04+01:00,1,0,0,-62.1874,16.7425,Coronavirus COVID-19 Global Cases by Johns Hopkins CSSE,https://www.arcgis.com/apps/opsdashboard/index.html#/bda7594740fd40299423467b48e9ecf6,hopkins.arcgis
global,Kirgisistan,1584532384000,2020-03-18T12:53:04+01:00,3,0,0,74.7661,41.2044,Coronavirus COVID-19 Global Cases by Johns Hopkins CSSE,https://www.arcgis.com/apps/opsdashboard/index.html#/bda7594740fd40299423467b48e9ecf6,hopkins.arcgis
global,Jamaica,1584532384000,2020-03-18T12:53:04+01:00,13,2,0,-77.2975,18.1096,Coronavirus COVID-19 Global Cases by Johns Hopkins CSSE,https://www.arcgis.com/apps/opsdashboard/index.html#/bda7594740fd40299423467b48e9ecf6,hopkins.arcgis
global,Bolivien,1584532384000,2020-03-18T12:53:04+01:00,12,0,0,-63.5887,-16.2902,Coronavirus COVID-19 Global Cases by Johns Hopkins CSSE,https://www.arcgis.com/apps/opsdashboard/index.html#/bda7594740fd40299423467b48e9ecf6,hopkins.arcgis
Australien,Australian Capital Territory,1584532384000,2020-03-18T12:53:04+01:00,3,0,0,149.0124,-35.4735,Coronavirus COVID-19 Global Cases by Johns Hopkins CSSE,https://www.arcgis.com/apps/opsdashboard/index.html#/bda7594740fd40299423467b48e9ecf6,hopkins.arcgis
Australien,Queensland,1584532384000,2020-03-18T12:53:04+01:00,94,8,0,153.4,-28.0167,Coronavirus COVID-19 Global Cases by Johns Hopkins CSSE,https://www.arcgis.com/apps/opsdashboard/index.html#/bda7594740fd40299423467b48e9ecf6,hopkins.arcgis
global,Aruba,1584532384000,2020-03-18T12:53:04+01:00,4,0,0,-69.9683,12.5211,Coronavirus COVID-19 Global Cases by Johns Hopkins CSSE,https://www.arcgis.com/apps/opsdashboard/index.html#/bda7594740fd40299423467b48e9ecf6,hopkins.arcgis
global,Mongolei,1584532384000,2020-03-18T12:53:04+01:00,6,0,0,103.8467,46.8625,Coronavirus COVID-19 Global Cases by Johns Hopkins CSSE,https://www.arcgis.com/apps/opsdashboard/index.html#/bda7594740fd40299423467b48e9ecf6,hopkins.arcgis
Australien,South Australia,1584532384000,2020-03-18T12:53:04+01:00,37,3,0,138.6007,-34.9285,Coronavirus COVID-19 Global Cases by Johns Hopkins CSSE,https://www.arcgis.com/apps/opsdashboard/index.html#/bda7594740fd40299423467b48e9ecf6,hopkins.arcgis
global,Trinidad und Tobago,1584532384000,2020-03-18T12:53:04+01:00,7,0,0,-61.2225,10.6918,Coronavirus COVID-19 Global Cases by Johns Hopkins CSSE,https://www.arcgis.com/apps/opsdashboard/index.html#/bda7594740fd40299423467b48e9ecf6,hopkins.arcgis
Kanada,Saskatchewan,1584532384000,2020-03-18T12:53:04+01:00,8,0,0,-106.4509,52.9399,Coronavirus COVID-19 Global Cases by Johns Hopkins CSSE,https://www.arcgis.com/apps/opsdashboard/index.html#/bda7594740fd40299423467b48e9ecf6,hopkins.arcgis
global,Honduras,1584532384000,2020-03-18T12:53:04+01:00,9,0,0,-86.2419,15.2,Coronavirus COVID-19 Global Cases by Johns Hopkins CSSE,https://www.arcgis.com/apps/opsdashboard/index.html#/bda7594740fd40299423467b48e9ecf6,hopkins.arcgis
Kanada,"Kreuzfahrtschiff ""Grand Princess""",1584532384000,2020-03-18T12:53:04+01:00,9,0,0,-122.665479,37.64894,Coronavirus COVID-19 Global Cases by Johns Hopkins CSSE,https://www.arcgis.com/apps/opsdashboard/index.html#/bda7594740fd40299423467b48e9ecf6,hopkins.arcgis
China,Heilongjiang,1584532383000,2020-03-18T12:53:03+01:00,482,459,13,127.761544149451,47.8619962256745,Coronavirus COVID-19 Global Cases by Johns Hopkins CSSE,https://www.arcgis.com/apps/opsdashboard/index.html#/bda7594740fd40299423467b48e9ecf6,hopkins.arcgis
global,Belarus,1584531184000,2020-03-18T12:33:04+01:00,51,5,0,27.9534,53.7098,Coronavirus COVID-19 Global Cases by Johns Hopkins CSSE,https://www.arcgis.com/apps/opsdashboard/index.html#/bda7594740fd40299423467b48e9ecf6,hopkins.arcgis
global,Venezuela,1584531184000,2020-03-18T12:33:04+01:00,36,0,0,-66.5897,6.4238,Coronavirus COVID-19 Global Cases by Johns Hopkins CSSE,https://www.arcgis.com/apps/opsdashboard/index.html#/bda7594740fd40299423467b48e9ecf6,hopkins.arcgis
global,Litauen,1584531184000,2020-03-18T12:33:04+01:00,27,1,0,23.8813,55.1694,Coronavirus COVID-19 Global Cases by Johns Hopkins CSSE,https://www.arcgis.com/apps/opsdashboard/index.html#/bda7594740fd40299423467b48e9ecf6,hopkins.arcgis
global,Uruguay,1584531184000,2020-03-18T12:33:04+01:00,50,0,0,-55.7658,-32.5228,Coronavirus COVID-19 Global Cases by Johns Hopkins CSSE,https://www.arcgis.com/apps/opsdashboard/index.html#/bda7594740fd40299423467b48e9ecf6,hopkins.arcgis
global,Tansania,1584531184000,2020-03-18T12:33:04+01:00,3,0,0,34.8888,-6.369,Coronavirus COVID-19 Global Cases by Johns Hopkins CSSE,https://www.arcgis.com/apps/opsdashboard/index.html#/bda7594740fd40299423467b48e9ecf6,hopkins.arcgis
global,Marokko,1584531184000,2020-03-18T12:33:04+01:00,49,1,2,-7.0926,31.7917,Coronavirus COVID-19 Global Cases by Johns Hopkins CSSE,https://www.arcgis.com/apps/opsdashboard/index.html#/bda7594740fd40299423467b48e9ecf6,hopkins.arcgis
global,Äthiopien,1584531184000,2020-03-18T12:33:04+01:00,6,0,0,40.4897,9.145,Coronavirus COVID-19 Global Cases by Johns Hopkins CSSE,https://www.arcgis.com/apps/opsdashboard/index.html#/bda7594740fd40299423467b48e9ecf6,hopkins.arcgis
global,Moldawien,1584531184000,2020-03-18T12:33:04+01:00,30,1,1,28.3699,47.4116,Coronavirus COVID-19 Global Cases by Johns Hopkins CSSE,https://www.arcgis.com/apps/opsdashboard/index.html#/bda7594740fd40299423467b48e9ecf6,hopkins.arcgis
global,Bangladesch,1584531184000,2020-03-18T12:33:04+01:00,14,3,1,90.3563,23.685,Coronavirus COVID-19 Global Cases by Johns Hopkins CSSE,https://www.arcgis.com/apps/opsdashboard/index.html#/bda7594740fd40299423467b48e9ecf6,hopkins.arcgis
global,Ruanda,1584531184000,2020-03-18T12:33:04+01:00,8,0,0,29.8739,-1.9403,Coronavirus COVID-19 Global Cases by Johns Hopkins CSSE,https://www.arcgis.com/apps/opsdashboard/index.html#/bda7594740fd40299423467b48e9ecf6,hopkins.arcgis
global,Senegal,1584531184000,2020-03-18T12:33:04+01:00,31,2,0,-14.4524,14.4974,Coronavirus COVID-19 Global Cases by Johns Hopkins CSSE,https://www.arcgis.com/apps/opsdashboard/index.html#/bda7594740fd40299423467b48e9ecf6,hopkins.arcgis
global,Kasachstan,1584531184000,2020-03-18T12:33:04+01:00,35,0,0,66.9237,48.0196,Coronavirus COVID-19 Global Cases by Johns Hopkins CSSE,https://www.arcgis.com/apps/opsdashboard/index.html#/bda7594740fd40299423467b48e9ecf6,hopkins.arcgis
global,Kambodscha,1584531184000,2020-03-18T12:33:04+01:00,35,1,0,104.991,12.5657,Coronavirus COVID-19 Global Cases by Johns Hopkins CSSE,https://www.arcgis.com/apps/opsdashboard/index.html#/bda7594740fd40299423467b48e9ecf6,hopkins.arcgis
global,Demokratische Republik Kongo,1584531184000,2020-03-18T12:33:04+01:00,4,0,0,21.7587,-4.0383,Coronavirus COVID-19 Global Cases by Johns Hopkins CSSE,https://www.arcgis.com/apps/opsdashboard/index.html#/bda7594740fd40299423467b48e9ecf6,hopkins.arcgis
global,Georgien,1584531184000,2020-03-18T12:33:04+01:00,38,1,0,43.3569,42.3154,Coronavirus COVID-19 Global Cases by Johns Hopkins CSSE,https://www.arcgis.com/apps/opsdashboard/index.html#/bda7594740fd40299423467b48e9ecf6,hopkins.arcgis
global,Elfenbeinküste,1584531184000,2020-03-18T12:33:04+01:00,6,1,0,-5.5471,7.54,Coronavirus COVID-19 Global Cases by Johns Hopkins CSSE,https://www.arcgis.com/apps/opsdashboard/index.html#/bda7594740fd40299423467b48e9ecf6,hopkins.arcgis
global,Brunei,1584530023000,2020-03-18T12:13:43+01:00,68,0,0,114.7277,4.5353,Coronavirus COVID-19 Global Cases by Johns Hopkins CSSE,https://www.arcgis.com/apps/opsdashboard/index.html#/bda7594740fd40299423467b48e9ecf6,hopkins.arcgis
global,Kroatien,1584530023000,2020-03-18T12:13:43+01:00,81,4,0,15.2,45.1,Coronavirus COVID-19 Global Cases by Johns Hopkins CSSE,https://www.arcgis.com/apps/opsdashboard/index.html#/bda7594740fd40299423467b48e9ecf6,hopkins.arcgis
global,Lettland,1584530023000,2020-03-18T12:13:43+01:00,71,1,0,24.6032,56.8796,Coronavirus COVID-19 Global Cases by Johns Hopkins CSSE,https://www.arcgis.com/apps/opsdashboard/index.html#/bda7594740fd40299423467b48e9ecf6,hopkins.arcgis
global,Ungarn,1584530023000,2020-03-18T12:13:43+01:00,58,2,1,19.5033,47.1625,Coronavirus COVID-19 Global Cases by Johns Hopkins CSSE,https://www.arcgis.com/apps/opsdashboard/index.html#/bda7594740fd40299423467b48e9ecf6,hopkins.arcgis
global,Mexiko,1584528782000,2020-03-18T11:53:02+01:00,93,4,0,-102.5528,23.6345,Coronavirus COVID-19 Global Cases by Johns Hopkins CSSE,https://www.arcgis.com/apps/opsdashboard/index.html#/bda7594740fd40299423467b48e9ecf6,hopkins.arcgis
global,Libanon,1584528782000,2020-03-18T11:53:02+01:00,133,3,3,35.8623,33.8547,Coronavirus COVID-19 Global Cases by Johns Hopkins CSSE,https://www.arcgis.com/apps/opsdashboard/index.html#/bda7594740fd40299423467b48e9ecf6,hopkins.arcgis
global,Armenien,1584528782000,2020-03-18T11:53:02+01:00,84,1,0,45.0382,40.0691,Coronavirus COVID-19 Global Cases by Johns Hopkins CSSE,https://www.arcgis.com/apps/opsdashboard/index.html#/bda7594740fd40299423467b48e9ecf6,hopkins.arcgis
global,Indonesien,1584528782000,2020-03-18T11:53:02+01:00,227,11,19,113.9213,-0.7893,Coronavirus COVID-19 Global Cases by Johns Hopkins CSSE,https://www.arcgis.com/apps/opsdashboard/index.html#/bda7594740fd40299423467b48e9ecf6,hopkins.arcgis
global,Serbien,1584528782000,2020-03-18T11:53:02+01:00,83,1,0,21.0059,44.0165,Coronavirus COVID-19 Global Cases by Johns Hopkins CSSE,https://www.arcgis.com/apps/opsdashboard/index.html#/bda7594740fd40299423467b48e9ecf6,hopkins.arcgis
global,Philippinen,1584528782000,2020-03-18T11:53:02+01:00,202,5,19,121.774,12.8797,Coronavirus COVID-19 Global Cases by Johns Hopkins CSSE,https://www.arcgis.com/apps/opsdashboard/index.html#/bda7594740fd40299423467b48e9ecf6,hopkins.arcgis
global,Luxemburg,1584528782000,2020-03-18T11:53:02+01:00,203,0,2,6.1296,49.8153,Coronavirus COVID-19 Global Cases by Johns Hopkins CSSE,https://www.arcgis.com/apps/opsdashboard/index.html#/bda7594740fd40299423467b48e9ecf6,hopkins.arcgis
global,Kuwait,1584528782000,2020-03-18T11:53:02+01:00,142,15,0,47.4818,29.3117,Coronavirus COVID-19 Global Cases by Johns Hopkins CSSE,https://www.arcgis.com/apps/opsdashboard/index.html#/bda7594740fd40299423467b48e9ecf6,hopkins.arcgis
global,Panama,1584528782000,2020-03-18T11:53:02+01:00,86,0,1,-80.7821,8.538,Coronavirus COVID-19 Global Cases by Johns Hopkins CSSE,https://www.arcgis.com/apps/opsdashboard/index.html#/bda7594740fd40299423467b48e9ecf6,hopkins.arcgis
global,Südafrika,1584528782000,2020-03-18T11:53:02+01:00,116,0,0,22.9375,-30.5595,Coronavirus COVID-19 Global Cases by Johns Hopkins CSSE,https://www.arcgis.com/apps/opsdashboard/index.html#/bda7594740fd40299423467b48e9ecf6,hopkins.arcgis
global,Thailand,1584528782000,2020-03-18T11:53:02+01:00,212,42,1,100.9925,15.87,Coronavirus COVID-19 Global Cases by Johns Hopkins CSSE,https://www.arcgis.com/apps/opsdashboard/index.html#/bda7594740fd40299423467b48e9ecf6,hopkins.arcgis
global,Malaysia,1584527584000,2020-03-18T11:33:04+01:00,790,60,2,101.9758,4.2105,Coronavirus COVID-19 Global Cases by Johns Hopkins CSSE,https://www.arcgis.com/apps/opsdashboard/index.html#/bda7594740fd40299423467b48e9ecf6,hopkins.arcgis
China,Macau,1584527584000,2020-03-18T11:33:04+01:00,15,10,0,113.55,22.166667,Coronavirus COVID-19 Global Cases by Johns Hopkins CSSE,https://www.arcgis.com/apps/opsdashboard/index.html#/bda7594740fd40299423467b48e9ecf6,hopkins.arcgis
global,Tschechien,1584527584000,2020-03-18T11:33:04+01:00,464,3,0,15.473,49.8175,Coronavirus COVID-19 Global Cases by Johns Hopkins CSSE,https://www.arcgis.com/apps/opsdashboard/index.html#/bda7594740fd40299423467b48e9ecf6,hopkins.arcgis
global,Estland,1584527584000,2020-03-18T11:33:04+01:00,258,1,0,25.0136,58.5953,Coronavirus COVID-19 Global Cases by Johns Hopkins CSSE,https://www.arcgis.com/apps/opsdashboard/index.html#/bda7594740fd40299423467b48e9ecf6,hopkins.arcgis
global,Martinique,1584526396000,2020-03-18T11:13:16+01:00,19,0,1,-61.0242,14.6415,Coronavirus COVID-19 Global Cases by Johns Hopkins CSSE,https://www.arcgis.com/apps/opsdashboard/index.html#/bda7594740fd40299423467b48e9ecf6,hopkins.arcgis
Frankreich,Saint Martin,1584526396000,2020-03-18T11:13:16+01:00,3,0,0,-63.0501,18.0708,Coronavirus COVID-19 Global Cases by Johns Hopkins CSSE,https://www.arcgis.com/apps/opsdashboard/index.html#/bda7594740fd40299423467b48e9ecf6,hopkins.arcgis
China,Hong Kong,1584523985000,2020-03-18T10:33:05+01:00,181,92,4,114.2,22.3,Coronavirus COVID-19 Global Cases by Johns Hopkins CSSE,https://www.arcgis.com/apps/opsdashboard/index.html#/bda7594740fd40299423467b48e9ecf6,hopkins.arcgis
China,Guangdong,1584521583000,2020-03-18T09:53:03+01:00,1370,1313,8,113.424401710676,23.3417337092088,Coronavirus COVID-19 Global Cases by Johns Hopkins CSSE,https://www.arcgis.com/apps/opsdashboard/index.html#/bda7594740fd40299423467b48e9ecf6,hopkins.arcgis
global,Taiwan,1584515592000,2020-03-18T08:13:12+01:00,100,22,1,121,23.7,Coronavirus COVID-19 Global Cases by Johns Hopkins CSSE,https://www.arcgis.com/apps/opsdashboard/index.html#/bda7594740fd40299423467b48e9ecf6,hopkins.arcgis
global,Barbados,1584513187000,2020-03-18T07:33:07+01:00,2,0,0,-59.5432,13.1939,Coronavirus COVID-19 Global Cases by Johns Hopkins CSSE,https://www.arcgis.com/apps/opsdashboard/index.html#/bda7594740fd40299423467b48e9ecf6,hopkins.arcgis
USA,Iowa,1584510805000,2020-03-18T06:53:25+01:00,29,0,0,-93.210526,42.011539,Coronavirus COVID-19 Global Cases by Johns Hopkins CSSE,https://www.arcgis.com/apps/opsdashboard/index.html#/bda7594740fd40299423467b48e9ecf6,hopkins.arcgis
China,Shanghai,1584510805000,2020-03-18T06:53:25+01:00,361,326,3,121.449111848821,31.2019853691089,Coronavirus COVID-19 Global Cases by Johns Hopkins CSSE,https://www.arcgis.com/apps/opsdashboard/index.html#/bda7594740fd40299423467b48e9ecf6,hopkins.arcgis
USA,District of Columbia,1584510805000,2020-03-18T06:53:25+01:00,31,0,0,-77.026817,38.897438,Coronavirus COVID-19 Global Cases by Johns Hopkins CSSE,https://www.arcgis.com/apps/opsdashboard/index.html#/bda7594740fd40299423467b48e9ecf6,hopkins.arcgis
USA,Alaska,1584510805000,2020-03-18T06:53:25+01:00,6,0,0,-152.404419,61.370716,Coronavirus COVID-19 Global Cases by Johns Hopkins CSSE,https://www.arcgis.com/apps/opsdashboard/index.html#/bda7594740fd40299423467b48e9ecf6,hopkins.arcgis
USA,Idaho,1584510805000,2020-03-18T06:53:25+01:00,9,0,0,-114.478828,44.240459,Coronavirus COVID-19 Global Cases by Johns Hopkins CSSE,https://www.arcgis.com/apps/opsdashboard/index.html#/bda7594740fd40299423467b48e9ecf6,hopkins.arcgis
USA,Hawaii,1584510805000,2020-03-18T06:53:25+01:00,14,0,0,-157.498337,21.094318,Coronavirus COVID-19 Global Cases by Johns Hopkins CSSE,https://www.arcgis.com/apps/opsdashboard/index.html#/bda7594740fd40299423467b48e9ecf6,hopkins.arcgis
China,Peking (Beijing),1584509585000,2020-03-18T06:33:05+01:00,469,378,8,116.414172956705,40.1823809324133,Coronavirus COVID-19 Global Cases by Johns Hopkins CSSE,https://www.arcgis.com/apps/opsdashboard/index.html#/bda7594740fd40299423467b48e9ecf6,hopkins.arcgis
China,Shaanxi,1584503582000,2020-03-18T04:53:02+01:00,246,237,3,108.870143735105,35.1916533064219,Coronavirus COVID-19 Global Cases by Johns Hopkins CSSE,https://www.arcgis.com/apps/opsdashboard/index.html#/bda7594740fd40299423467b48e9ecf6,hopkins.arcgis
Kanada,Alberta,1584502383000,2020-03-18T04:33:03+01:00,97,0,0,-116.5765,53.9333,Coronavirus COVID-19 Global Cases by Johns Hopkins CSSE,https://www.arcgis.com/apps/opsdashboard/index.html#/bda7594740fd40299423467b48e9ecf6,hopkins.arcgis
global,Costa Rica,1584502383000,2020-03-18T04:33:03+01:00,50,0,0,-83.7534,9.7489,Coronavirus COVID-19 Global Cases by Johns Hopkins CSSE,https://www.arcgis.com/apps/opsdashboard/index.html#/bda7594740fd40299423467b48e9ecf6,hopkins.arcgis
Kanada,Manitoba,1584502383000,2020-03-18T04:33:03+01:00,15,0,0,-98.8139,53.7609,Coronavirus COVID-19 Global Cases by Johns Hopkins CSSE,https://www.arcgis.com/apps/opsdashboard/index.html#/bda7594740fd40299423467b48e9ecf6,hopkins.arcgis
Kanada,British Columbia,1584502383000,2020-03-18T04:33:03+01:00,186,4,7,-127.6476,53.7267,Coronavirus COVID-19 Global Cases by Johns Hopkins CSSE,https://www.arcgis.com/apps/opsdashboard/index.html#/bda7594740fd40299423467b48e9ecf6,hopkins.arcgis
global,Argentinien,1584502383000,2020-03-18T04:33:03+01:00,79,3,2,-63.6167,-38.4161,Coronavirus COVID-19 Global Cases by Johns Hopkins CSSE,https://www.arcgis.com/apps/opsdashboard/index.html#/bda7594740fd40299423467b48e9ecf6,hopkins.arcgis
global,Liberia,1584501202000,2020-03-18T04:13:22+01:00,2,0,0,-9.4295,6.4281,Coronavirus COVID-19 Global Cases by Johns Hopkins CSSE,https://www.arcgis.com/apps/opsdashboard/index.html#/bda7594740fd40299423467b48e9ecf6,hopkins.arcgis
global,Zypern,1584501199000,2020-03-18T04:13:19+01:00,49,0,0,33.4299,35.1264,Coronavirus COVID-19 Global Cases by Johns Hopkins CSSE,https://www.arcgis.com/apps/opsdashboard/index.html#/bda7594740fd40299423467b48e9ecf6,hopkins.arcgis
global,Ecuador,1584501199000,2020-03-18T04:13:19+01:00,111,0,2,-78.1834,-1.8312,Coronavirus COVID-19 Global Cases by Johns Hopkins CSSE,https://www.arcgis.com/apps/opsdashboard/index.html#/bda7594740fd40299423467b48e9ecf6,hopkins.arcgis
global,Ägypten,1584501194000,2020-03-18T04:13:14+01:00,196,32,6,30.8025,26.8206,Coronavirus COVID-19 Global Cases by Johns Hopkins CSSE,https://www.arcgis.com/apps/opsdashboard/index.html#/bda7594740fd40299423467b48e9ecf6,hopkins.arcgis
global,Irland,1584501192000,2020-03-18T04:13:12+01:00,292,5,2,-7.6921,53.1424,Coronavirus COVID-19 Global Cases by Johns Hopkins CSSE,https://www.arcgis.com/apps/opsdashboard/index.html#/bda7594740fd40299423467b48e9ecf6,hopkins.arcgis
global,Südkorea,1584499983000,2020-03-18T03:53:03+01:00,8413,1540,84,127.7669,35.9078,Coronavirus COVID-19 Global Cases by Johns Hopkins CSSE,https://www.arcgis.com/apps/opsdashboard/index.html#/bda7594740fd40299423467b48e9ecf6,hopkins.arcgis
global,San Marino,1584499983000,2020-03-18T03:53:03+01:00,119,4,11,12.4578,43.9424,Coronavirus COVID-19 Global Cases by Johns Hopkins CSSE,https://www.arcgis.com/apps/opsdashboard/index.html#/bda7594740fd40299423467b48e9ecf6,hopkins.arcgis
global,Neuseeland,1584499983000,2020-03-18T03:53:03+01:00,20,0,0,174.886,-40.9006,Coronavirus COVID-19 Global Cases by Johns Hopkins CSSE,https://www.arcgis.com/apps/opsdashboard/index.html#/bda7594740fd40299423467b48e9ecf6,hopkins.arcgis
global,Türkei,1584498786000,2020-03-18T03:33:06+01:00,98,0,1,35.2433,38.9637,Coronavirus COVID-19 Global Cases by Johns Hopkins CSSE,https://www.arcgis.com/apps/opsdashboard/index.html#/bda7594740fd40299423467b48e9ecf6,hopkins.arcgis
global,Vereinigte Arabische Emirate,1584498786000,2020-03-18T03:33:06+01:00,113,26,0,53.8478,23.4241,Coronavirus COVID-19 Global Cases by Johns Hopkins CSSE,https://www.arcgis.com/apps/opsdashboard/index.html#/bda7594740fd40299423467b48e9ecf6,hopkins.arcgis
China,Liaoning,1584497586000,2020-03-18T03:13:06+01:00,125,122,1,122.60854186375,41.2956478642686,Coronavirus COVID-19 Global Cases by Johns Hopkins CSSE,https://www.arcgis.com/apps/opsdashboard/index.html#/bda7594740fd40299423467b48e9ecf6,hopkins.arcgis
China,Sichuan,1584497585000,2020-03-18T03:13:05+01:00,540,525,3,102.710322085654,30.6171383897493,Coronavirus COVID-19 Global Cases by Johns Hopkins CSSE,https://www.arcgis.com/apps/opsdashboard/index.html#/bda7594740fd40299423467b48e9ecf6,hopkins.arcgis
China,Guizhou,1584496383000,2020-03-18T02:53:03+01:00,146,144,2,106.874783781561,26.8153610246946,Coronavirus COVID-19 Global Cases by Johns Hopkins CSSE,https://www.arcgis.com/apps/opsdashboard/index.html#/bda7594740fd40299423467b48e9ecf6,hopkins.arcgis
global,Somalia,1584492783000,2020-03-18T01:53:03+01:00,1,0,0,46.1996,5.1521,Coronavirus COVID-19 Global Cases by Johns Hopkins CSSE,https://www.arcgis.com/apps/opsdashboard/index.html#/bda7594740fd40299423467b48e9ecf6,hopkins.arcgis
Niederlande,Aruba,1584489182000,2020-03-18T00:53:02+01:00,2,0,0,-70.0358,12.5186,2019 Novel Coronavirus COVID-19 (2019-nCoV) Data Repository by Johns Hopkins CSSE,https://github.com/CSSEGISandData/COVID-19,hopkins.github
China,Guangxi,1584491582000,2020-03-18T01:33:02+01:00,253,250,2,108.78812722508,23.8298403568635,Coronavirus COVID-19 Global Cases by Johns Hopkins CSSE,https://www.arcgis.com/apps/opsdashboard/index.html#/bda7594740fd40299423467b48e9ecf6,hopkins.arcgis
USA,Amerikanische Jungferninseln,1584490393000,2020-03-18T01:13:13+01:00,2,0,0,-64.933,18.35,Coronavirus COVID-19 Global Cases by Johns Hopkins CSSE,https://www.arcgis.com/apps/opsdashboard/index.html#/bda7594740fd40299423467b48e9ecf6,hopkins.arcgis
USA,West Virginia,1584487982000,2020-03-18T00:33:02+01:00,1,0,0,-80.954453,38.491226,Coronavirus COVID-19 Global Cases by Johns Hopkins CSSE,https://www.arcgis.com/apps/opsdashboard/index.html#/bda7594740fd40299423467b48e9ecf6,hopkins.arcgis
USA,South Dakota,1584487982000,2020-03-18T00:33:02+01:00,11,0,1,-99.438828,44.299782,Coronavirus COVID-19 Global Cases by Johns Hopkins CSSE,https://www.arcgis.com/apps/opsdashboard/index.html#/bda7594740fd40299423467b48e9ecf6,hopkins.arcgis
USA,New Mexico,1584486790000,2020-03-18T00:13:10+01:00,23,0,0,-106.248482,34.840515,Coronavirus COVID-19 Global Cases by Johns Hopkins CSSE,https://www.arcgis.com/apps/opsdashboard/index.html#/bda7594740fd40299423467b48e9ecf6,hopkins.arcgis
USA,New Hampshire,1584486790000,2020-03-18T00:13:10+01:00,26,0,0,-71.563896,43.452492,Coronavirus COVID-19 Global Cases by Johns Hopkins CSSE,https://www.arcgis.com/apps/opsdashboard/index.html#/bda7594740fd40299423467b48e9ecf6,hopkins.arcgis
USA,South Carolina,1584486790000,2020-03-18T00:13:10+01:00,47,0,1,-80.945007,33.856892,Coronavirus COVID-19 Global Cases by Johns Hopkins CSSE,https://www.arcgis.com/apps/opsdashboard/index.html#/bda7594740fd40299423467b48e9ecf6,hopkins.arcgis
USA,Connecticut,1584486790000,2020-03-18T00:13:10+01:00,68,0,0,-72.755371,41.597782,Coronavirus COVID-19 Global Cases by Johns Hopkins CSSE,https://www.arcgis.com/apps/opsdashboard/index.html#/bda7594740fd40299423467b48e9ecf6,hopkins.arcgis
USA,Kansas,1584486790000,2020-03-18T00:13:10+01:00,18,0,1,-96.726486,38.5266,Coronavirus COVID-19 Global Cases by Johns Hopkins CSSE,https://www.arcgis.com/apps/opsdashboard/index.html#/bda7594740fd40299423467b48e9ecf6,hopkins.arcgis
global,Republik Kongo,1584477183000,2020-03-17T21:33:03+01:00,0,0,0,15.556,-1.44,2019 Novel Coronavirus COVID-19 (2019-nCoV) Data Repository by Johns Hopkins CSSE,https://github.com/CSSEGISandData/COVID-19,hopkins.github
global,Andorra,1584478382000,2020-03-17T21:53:02+01:00,39,1,0,1.5218,42.5063,Coronavirus COVID-19 Global Cases by Johns Hopkins CSSE,https://www.arcgis.com/apps/opsdashboard/index.html#/bda7594740fd40299423467b48e9ecf6,hopkins.arcgis
USA,Utah,1584478382000,2020-03-17T21:53:02+01:00,51,0,0,-111.862434,40.150032,Coronavirus COVID-19 Global Cases by Johns Hopkins CSSE,https://www.arcgis.com/apps/opsdashboard/index.html#/bda7594740fd40299423467b48e9ecf6,hopkins.arcgis
USA,"Kreuzfahrtschiff ""Grand Princess""",1584478382000,2020-03-17T21:53:02+01:00,21,0,0,-122.665479,37.64894,Coronavirus COVID-19 Global Cases by Johns Hopkins CSSE,https://www.arcgis.com/apps/opsdashboard/index.html#/bda7594740fd40299423467b48e9ecf6,hopkins.arcgis
global,Ghana,1584473582000,2020-03-17T20:33:02+01:00,7,0,0,-1.0232,7.9465,Coronavirus COVID-19 Global Cases by Johns Hopkins CSSE,https://www.arcgis.com/apps/opsdashboard/index.html#/bda7594740fd40299423467b48e9ecf6,hopkins.arcgis
global,Ukraine,1584473582000,2020-03-17T20:33:02+01:00,14,0,2,31.1656,48.3794,Coronavirus COVID-19 Global Cases by Johns Hopkins CSSE,https://www.arcgis.com/apps/opsdashboard/index.html#/bda7594740fd40299423467b48e9ecf6,hopkins.arcgis
USA,Oklahoma,1584467583000,2020-03-17T18:53:03+01:00,19,0,0,-96.928917,35.565342,Coronavirus COVID-19 Global Cases by Johns Hopkins CSSE,https://www.arcgis.com/apps/opsdashboard/index.html#/bda7594740fd40299423467b48e9ecf6,hopkins.arcgis
Kanada,Newfoundland and Labrador,1584467583000,2020-03-17T18:53:03+01:00,3,0,0,-57.6604,53.1355,Coronavirus COVID-19 Global Cases by Johns Hopkins CSSE,https://www.arcgis.com/apps/opsdashboard/index.html#/bda7594740fd40299423467b48e9ecf6,hopkins.arcgis
global,Saudiarabien,1584467583000,2020-03-17T18:53:03+01:00,171,6,0,45.0792,23.8859,Coronavirus COVID-19 Global Cases by Johns Hopkins CSSE,https://www.arcgis.com/apps/opsdashboard/index.html#/bda7594740fd40299423467b48e9ecf6,hopkins.arcgis
global,Slowenien,1584463984000,2020-03-17T17:53:04+01:00,275,0,1,14.9955,46.1512,Coronavirus COVID-19 Global Cases by Johns Hopkins CSSE,https://www.arcgis.com/apps/opsdashboard/index.html#/bda7594740fd40299423467b48e9ecf6,hopkins.arcgis
USA,Puerto Rico,1584457994000,2020-03-17T16:13:14+01:00,0,0,0,-66.5,18.2,2019 Novel Coronavirus COVID-19 (2019-nCoV) Data Repository by Johns Hopkins CSSE,https://github.com/CSSEGISandData/COVID-19,hopkins.github
global,Kamerun,1584460393000,2020-03-17T16:53:13+01:00,10,0,0,11.5021,3.848,Coronavirus COVID-19 Global Cases by Johns Hopkins CSSE,https://www.arcgis.com/apps/opsdashboard/index.html#/bda7594740fd40299423467b48e9ecf6,hopkins.arcgis
global,Malta,1584460392000,2020-03-17T16:53:12+01:00,38,2,0,14.3754,35.9375,Coronavirus COVID-19 Global Cases by Johns Hopkins CSSE,https://www.arcgis.com/apps/opsdashboard/index.html#/bda7594740fd40299423467b48e9ecf6,hopkins.arcgis
Niederlande,Curaçao,1584444787000,2020-03-17T12:33:07+01:00,3,0,0,-68.99,12.1696,2019 Novel Coronavirus COVID-19 (2019-nCoV) Data Repository by Johns Hopkins CSSE,https://github.com/CSSEGISandData/COVID-19,hopkins.github
global,Seychellen,1584448386000,2020-03-17T13:33:06+01:00,4,0,0,55.492,-4.6796,Coronavirus COVID-19 Global Cases by Johns Hopkins CSSE,https://www.arcgis.com/apps/opsdashboard/index.html#/bda7594740fd40299423467b48e9ecf6,hopkins.arcgis
global,Guatemala,1584447196000,2020-03-17T13:13:16+01:00,6,0,1,-90.2308,15.7835,Coronavirus COVID-19 Global Cases by Johns Hopkins CSSE,https://www.arcgis.com/apps/opsdashboard/index.html#/bda7594740fd40299423467b48e9ecf6,hopkins.arcgis
global,Afghanistan,1584445990000,2020-03-17T12:53:10+01:00,22,1,0,67.71,33.9391,Coronavirus COVID-19 Global Cases by Johns Hopkins CSSE,https://www.arcgis.com/apps/opsdashboard/index.html#/bda7594740fd40299423467b48e9ecf6,hopkins.arcgis
global,Aserbaidschan,1584445990000,2020-03-17T12:53:10+01:00,28,6,1,47.5769,40.1431,Coronavirus COVID-19 Global Cases by Johns Hopkins CSSE,https://www.arcgis.com/apps/opsdashboard/index.html#/bda7594740fd40299423467b48e9ecf6,hopkins.arcgis
global,Guyana,1584442383000,2020-03-17T11:53:03+01:00,7,0,1,-58.9302,4.8604,Coronavirus COVID-19 Global Cases by Johns Hopkins CSSE,https://www.arcgis.com/apps/opsdashboard/index.html#/bda7594740fd40299423467b48e9ecf6,hopkins.arcgis
global,Dominikanische Republik,1584432802000,2020-03-17T09:13:22+01:00,21,0,1,-70.1627,18.7357,Coronavirus COVID-19 Global Cases by Johns Hopkins CSSE,https://www.arcgis.com/apps/opsdashboard/index.html#/bda7594740fd40299423467b48e9ecf6,hopkins.arcgis
global,St. Lucia,1584419539000,2020-03-17T05:32:19+01:00,2,0,0,-60.9789,13.9094,Coronavirus COVID-19 Global Cases by Johns Hopkins CSSE,https://www.arcgis.com/apps/opsdashboard/index.html#/bda7594740fd40299423467b48e9ecf6,hopkins.arcgis
China,Zhejiang,1584411201000,2020-03-17T03:13:21+01:00,1232,1216,1,120.093412774886,29.1831892798285,Coronavirus COVID-19 Global Cases by Johns Hopkins CSSE,https://www.arcgis.com/apps/opsdashboard/index.html#/bda7594740fd40299423467b48e9ecf6,hopkins.arcgis
China,Shandong,1584405182000,2020-03-17T01:33:02+01:00,761,746,7,118.149838795037,36.3426714789712,Coronavirus COVID-19 Global Cases by Johns Hopkins CSSE,https://www.arcgis.com/apps/opsdashboard/index.html#/bda7594740fd40299423467b48e9ecf6,hopkins.arcgis
China,Yunnan,1584402782000,2020-03-17T00:53:02+01:00,176,172,2,101.486994477533,24.9740090515417,Coronavirus COVID-19 Global Cases by Johns Hopkins CSSE,https://www.arcgis.com/apps/opsdashboard/index.html#/bda7594740fd40299423467b48e9ecf6,hopkins.arcgis
Dänemark,Grönland,1584377586000,2020-03-16T17:53:06+01:00,1,0,0,-42.6043,71.7069,Coronavirus COVID-19 Global Cases by Johns Hopkins CSSE,https://www.arcgis.com/apps/opsdashboard/index.html#/bda7594740fd40299423467b48e9ecf6,hopkins.arcgis
Großbritannien,Kaimaninseln,1584370384000,2020-03-16T15:53:04+01:00,1,0,1,-81.2546,19.3133,Coronavirus COVID-19 Global Cases by Johns Hopkins CSSE,https://www.arcgis.com/apps/opsdashboard/index.html#/bda7594740fd40299423467b48e9ecf6,hopkins.arcgis
Frankreich,Saint Barthélemy,1584369525000,2020-03-16T15:38:45+01:00,3,0,0,-62.8333,17.9,Coronavirus COVID-19 Global Cases by Johns Hopkins CSSE,https://www.arcgis.com/apps/opsdashboard/index.html#/bda7594740fd40299423467b48e9ecf6,hopkins.arcgis
China,Ningxia,1584369525000,2020-03-16T15:38:45+01:00,75,75,0,106.165455205247,37.2692274353319,Coronavirus COVID-19 Global Cases by Johns Hopkins CSSE,https://www.arcgis.com/apps/opsdashboard/index.html#/bda7594740fd40299423467b48e9ecf6,hopkins.arcgis
Großbritannien,Kanalinseln,1584369525000,2020-03-16T15:38:45+01:00,6,0,0,-2.364351,49.372284,Coronavirus COVID-19 Global Cases by Johns Hopkins CSSE,https://www.arcgis.com/apps/opsdashboard/index.html#/bda7594740fd40299423467b48e9ecf6,hopkins.arcgis
China,Innere Mongolei,1584369525000,2020-03-16T15:38:45+01:00,75,73,1,113.944789458154,44.0935009913267,Coronavirus COVID-19 Global Cases by Johns Hopkins CSSE,https://www.arcgis.com/apps/opsdashboard/index.html#/bda7594740fd40299423467b48e9ecf6,hopkins.arcgis
global,Monaco,1584369525000,2020-03-16T15:38:45+01:00,7,0,0,7.4246,43.7384,Coronavirus COVID-19 Global Cases by Johns Hopkins CSSE,https://www.arcgis.com/apps/opsdashboard/index.html#/bda7594740fd40299423467b48e9ecf6,hopkins.arcgis
China,Hainan,1584369525000,2020-03-16T15:38:45+01:00,168,161,6,109.745335576195,19.1958639124575,Coronavirus COVID-19 Global Cases by Johns Hopkins CSSE,https://www.arcgis.com/apps/opsdashboard/index.html#/bda7594740fd40299423467b48e9ecf6,hopkins.arcgis
global,Zentralafrikanische Republik,1584329583000,2020-03-16T04:33:03+01:00,1,0,0,20.9394,6.6111,Coronavirus COVID-19 Global Cases by Johns Hopkins CSSE,https://www.arcgis.com/apps/opsdashboard/index.html#/bda7594740fd40299423467b48e9ecf6,hopkins.arcgis
global,Bahamas,1584329583000,2020-03-16T04:33:03+01:00,1,0,0,-76,24.25,Coronavirus COVID-19 Global Cases by Johns Hopkins CSSE,https://www.arcgis.com/apps/opsdashboard/index.html#/bda7594740fd40299423467b48e9ecf6,hopkins.arcgis
global,Kenia,1584318131000,2020-03-16T01:22:11+01:00,3,0,0,37.9062,-0.0236,Coronavirus COVID-19 Global Cases by Johns Hopkins CSSE,https://www.arcgis.com/apps/opsdashboard/index.html#/bda7594740fd40299423467b48e9ecf6,hopkins.arcgis
China,Jilin,1584318130000,2020-03-16T01:22:10+01:00,93,92,1,126.192329763813,43.6661021395126,Coronavirus COVID-19 Global Cases by Johns Hopkins CSSE,https://www.arcgis.com/apps/opsdashboard/index.html#/bda7594740fd40299423467b48e9ecf6,hopkins.arcgis
global,Mauretanien,1584296419000,2020-03-15T19:20:19+01:00,1,0,0,-10.9408,21.0079,Coronavirus COVID-19 Global Cases by Johns Hopkins CSSE,https://www.arcgis.com/apps/opsdashboard/index.html#/bda7594740fd40299423467b48e9ecf6,hopkins.arcgis
global,Kosovo,1584296419000,2020-03-15T19:20:19+01:00,2,0,0,20.903,42.6026,Coronavirus COVID-19 Global Cases by Johns Hopkins CSSE,https://www.arcgis.com/apps/opsdashboard/index.html#/bda7594740fd40299423467b48e9ecf6,hopkins.arcgis
Frankreich,Französisch-Polynesien,1584296419000,2020-03-15T19:20:19+01:00,3,0,0,-149.4068,-17.6797,Coronavirus COVID-19 Global Cases by Johns Hopkins CSSE,https://www.arcgis.com/apps/opsdashboard/index.html#/bda7594740fd40299423467b48e9ecf6,hopkins.arcgis
global,Antigua und Barbuda,1584296419000,2020-03-15T19:20:19+01:00,1,0,0,-61.7964,17.0608,Coronavirus COVID-19 Global Cases by Johns Hopkins CSSE,https://www.arcgis.com/apps/opsdashboard/index.html#/bda7594740fd40299423467b48e9ecf6,hopkins.arcgis
global,Malediven,1584296418000,2020-03-15T19:20:18+01:00,13,0,0,73.2207,3.2028,Coronavirus COVID-19 Global Cases by Johns Hopkins CSSE,https://www.arcgis.com/apps/opsdashboard/index.html#/bda7594740fd40299423467b48e9ecf6,hopkins.arcgis
China,Tianjin,1584296418000,2020-03-15T19:20:18+01:00,136,133,3,117.322972903268,39.3053612117002,Coronavirus COVID-19 Global Cases by Johns Hopkins CSSE,https://www.arcgis.com/apps/opsdashboard/index.html#/bda7594740fd40299423467b48e9ecf6,hopkins.arcgis
China,Gansu,1584296418000,2020-03-15T19:20:18+01:00,133,91,2,103.8343,36.0611,Coronavirus COVID-19 Global Cases by Johns Hopkins CSSE,https://www.arcgis.com/apps/opsdashboard/index.html#/bda7594740fd40299423467b48e9ecf6,hopkins.arcgis
global,Eswatini,1584254514000,2020-03-15T07:41:54+01:00,1,0,0,31.4659,-26.5225,Coronavirus COVID-19 Global Cases by Johns Hopkins CSSE,https://www.arcgis.com/apps/opsdashboard/index.html#/bda7594740fd40299423467b48e9ecf6,hopkins.arcgis
global,Guinea,1584254514000,2020-03-15T07:41:54+01:00,1,0,0,-9.6966,9.9456,Coronavirus COVID-19 Global Cases by Johns Hopkins CSSE,https://www.arcgis.com/apps/opsdashboard/index.html#/bda7594740fd40299423467b48e9ecf6,hopkins.arcgis
China,Chongqing,1584244384000,2020-03-15T04:53:04+01:00,576,570,6,107.87398583171,30.0571758751839,Coronavirus COVID-19 Global Cases by Johns Hopkins CSSE,https://www.arcgis.com/apps/opsdashboard/index.html#/bda7594740fd40299423467b48e9ecf6,hopkins.arcgis
Kanada,Prince Edward Island,1584238401000,2020-03-15T03:13:21+01:00,1,0,0,-63.4168,46.5107,Coronavirus COVID-19 Global Cases by Johns Hopkins CSSE,https://www.arcgis.com/apps/opsdashboard/index.html#/bda7594740fd40299423467b48e9ecf6,hopkins.arcgis
China,Jiangsu,1584237182000,2020-03-15T02:53:02+01:00,631,631,0,119.45501030983,32.9710980851278,Coronavirus COVID-19 Global Cases by Johns Hopkins CSSE,https://www.arcgis.com/apps/opsdashboard/index.html#/bda7594740fd40299423467b48e9ecf6,hopkins.arcgis
global,St. Vincent und die Grenadinen,1584203583000,2020-03-14T17:33:03+01:00,1,0,0,-61.2872,12.9843,Coronavirus COVID-19 Global Cases by Johns Hopkins CSSE,https://www.arcgis.com/apps/opsdashboard/index.html#/bda7594740fd40299423467b48e9ecf6,hopkins.arcgis
global,Namibia,1584203583000,2020-03-14T17:33:03+01:00,2,0,0,18.4904,-22.9576,Coronavirus COVID-19 Global Cases by Johns Hopkins CSSE,https://www.arcgis.com/apps/opsdashboard/index.html#/bda7594740fd40299423467b48e9ecf6,hopkins.arcgis
global,Suriname,1584203583000,2020-03-14T17:33:03+01:00,1,0,0,-56.0278,3.9193,Coronavirus COVID-19 Global Cases by Johns Hopkins CSSE,https://www.arcgis.com/apps/opsdashboard/index.html#/bda7594740fd40299423467b48e9ecf6,hopkins.arcgis
global,Gabon,1584192784000,2020-03-14T14:33:04+01:00,1,0,0,11.6094,-0.8037,Coronavirus COVID-19 Global Cases by Johns Hopkins CSSE,https://www.arcgis.com/apps/opsdashboard/index.html#/bda7594740fd40299423467b48e9ecf6,hopkins.arcgis
China,Henan,1584179588000,2020-03-14T10:53:08+01:00,1273,1250,22,113.613964115943,33.8820061472366,Coronavirus COVID-19 Global Cases by Johns Hopkins CSSE,https://www.arcgis.com/apps/opsdashboard/index.html#/bda7594740fd40299423467b48e9ecf6,hopkins.arcgis
China,Hunan,1584174783000,2020-03-14T09:33:03+01:00,1018,1014,4,111.708835644484,27.6104072903766,Coronavirus COVID-19 Global Cases by Johns Hopkins CSSE,https://www.arcgis.com/apps/opsdashboard/index.html#/bda7594740fd40299423467b48e9ecf6,hopkins.arcgis
Australien,Northern Territory,1584150783000,2020-03-14T02:53:03+01:00,1,0,0,130.8456,-12.4634,Coronavirus COVID-19 Global Cases by Johns Hopkins CSSE,https://www.arcgis.com/apps/opsdashboard/index.html#/bda7594740fd40299423467b48e9ecf6,hopkins.arcgis
global,Nepal,1584138123000,2020-03-13T23:22:03+01:00,1,1,0,84.124,28.3949,Coronavirus COVID-19 Global Cases by Johns Hopkins CSSE,https://www.arcgis.com/apps/opsdashboard/index.html#/bda7594740fd40299423467b48e9ecf6,hopkins.arcgis
global,Togo,1584138122000,2020-03-13T23:22:02+01:00,1,0,0,0.8248,8.6195,Coronavirus COVID-19 Global Cases by Johns Hopkins CSSE,https://www.arcgis.com/apps/opsdashboard/index.html#/bda7594740fd40299423467b48e9ecf6,hopkins.arcgis
global,Bhutan,1584138122000,2020-03-13T23:22:02+01:00,1,0,0,90.4336,27.5142,Coronavirus COVID-19 Global Cases by Johns Hopkins CSSE,https://www.arcgis.com/apps/opsdashboard/index.html#/bda7594740fd40299423467b48e9ecf6,hopkins.arcgis
global,Vatikan,1584138122000,2020-03-13T23:22:02+01:00,1,0,0,12.4534,41.9029,Coronavirus COVID-19 Global Cases by Johns Hopkins CSSE,https://www.arcgis.com/apps/opsdashboard/index.html#/bda7594740fd40299423467b48e9ecf6,hopkins.arcgis
China,Shanxi,1584097743000,2020-03-13T12:09:03+01:00,133,133,0,112.292191181538,37.5776849568384,Coronavirus COVID-19 Global Cases by Johns Hopkins CSSE,https://www.arcgis.com/apps/opsdashboard/index.html#/bda7594740fd40299423467b48e9ecf6,hopkins.arcgis
China,Hebei,1584097743000,2020-03-13T12:09:03+01:00,318,310,6,114.5149,38.0428,Coronavirus COVID-19 Global Cases by Johns Hopkins CSSE,https://www.arcgis.com/apps/opsdashboard/index.html#/bda7594740fd40299423467b48e9ecf6,hopkins.arcgis
China,Jiangxi,1583979184000,2020-03-12T03:13:04+01:00,935,934,1,115.722093542185,27.614008270636,Coronavirus COVID-19 Global Cases by Johns Hopkins CSSE,https://www.arcgis.com/apps/opsdashboard/index.html#/bda7594740fd40299423467b48e9ecf6,hopkins.arcgis
China,Tibet,1583893094000,2020-03-11T03:18:14+01:00,1,1,0,88.0924318966888,31.6927165373017,Coronavirus COVID-19 Global Cases by Johns Hopkins CSSE,https://www.arcgis.com/apps/opsdashboard/index.html#/bda7594740fd40299423467b48e9ecf6,hopkins.arcgis
China,Qinghai,1583893094000,2020-03-11T03:18:14+01:00,18,18,0,95.9955784711286,35.7452031801411,Coronavirus COVID-19 Global Cases by Johns Hopkins CSSE,https://www.arcgis.com/apps/opsdashboard/index.html#/bda7594740fd40299423467b48e9ecf6,hopkins.arcgis
China,Anhui,1583893094000,2020-03-11T03:18:14+01:00,990,984,6,117.226363790413,31.8257120511073,Coronavirus COVID-19 Global Cases by Johns Hopkins CSSE,https://www.arcgis.com/apps/opsdashboard/index.html#/bda7594740fd40299423467b48e9ecf6,hopkins.arcgis
China,Fujian,1583893094000,2020-03-11T03:18:14+01:00,296,295,1,117.987371739429,26.0788658351203,Coronavirus COVID-19 Global Cases by Johns Hopkins CSSE,https://www.arcgis.com/apps/opsdashboard/index.html#/bda7594740fd40299423467b48e9ecf6,hopkins.arcgis
China,Xinjiang,1583893094000,2020-03-11T03:18:14+01:00,76,73,3,85.240102435218,41.1128513419168,Coronavirus COVID-19 Global Cases by Johns Hopkins CSSE,https://www.arcgis.com/apps/opsdashboard/index.html#/bda7594740fd40299423467b48e9ecf6,hopkins.arcgis
Deutschland,Baden-Württemberg,1584464400000,2020-03-17T18:00:00+01:00,2184,8,8,9.147687,48.606091,RKI/eigene,https://www.rki.de/DE/Content/InfAZ/N/Neuartiges_Coronavirus/Fallzahlen.html,rki.spreadsheet
Deutschland,Bayern,1584536400000,2020-03-18T14:00:00+01:00,1798,14,5,11.658165,48.768814,RKI/eigene,https://www.rki.de/DE/Content/InfAZ/N/Neuartiges_Coronavirus/Fallzahlen.html,rki.spreadsheet
Deutschland,Berlin,1584558000000,2020-03-18T20:00:00+01:00,519,6,0,13.40732,52.52045,RKI/eigene,https://www.rki.de/DE/Content/InfAZ/N/Neuartiges_Coronavirus/Fallzahlen.html,rki.spreadsheet
Deutschland,Brandenburg,1584543600000,2020-03-18T16:00:00+01:00,171,1,0,14.124409,52.073056,RKI/eigene,https://www.rki.de/DE/Content/InfAZ/N/Neuartiges_Coronavirus/Fallzahlen.html,rki.spreadsheet
Deutschland,Bremen,1584554400000,2020-03-18T19:00:00+01:00,75,3,0,8.731851,53.029599,RKI/eigene,https://www.rki.de/DE/Content/InfAZ/N/Neuartiges_Coronavirus/Fallzahlen.html,rki.spreadsheet
Deutschland,Hamburg,1584550800000,2020-03-18T18:00:00+01:00,414,1,1,10.007046,53.576158,RKI/eigene,https://www.rki.de/DE/Content/InfAZ/N/Neuartiges_Coronavirus/Fallzahlen.html,rki.spreadsheet
Deutschland,Hessen,1584540000000,2020-03-18T15:00:00+01:00,547,2,1,9.217535,50.758489,RKI/eigene,https://www.rki.de/DE/Content/InfAZ/N/Neuartiges_Coronavirus/Fallzahlen.html,rki.spreadsheet
Deutschland,Mecklenburg-Vorpommern,1584547200000,2020-03-18T17:00:00+01:00,100,0,0,12.708563,53.810625,RKI/eigene,https://www.rki.de/DE/Content/InfAZ/N/Neuartiges_Coronavirus/Fallzahlen.html,rki.spreadsheet
Deutschland,Niedersachsen,1584543600000,2020-03-18T16:00:00+01:00,740,1,0,9.944255,52.518203,RKI/eigene,https://www.rki.de/DE/Content/InfAZ/N/Neuartiges_Coronavirus/Fallzahlen.html,rki.spreadsheet
Deutschland,Nordrhein-Westfalen,1584522000000,2020-03-18T10:00:00+01:00,4268,67,13,7.385313,51.510157,RKI/eigene,https://www.rki.de/DE/Content/InfAZ/N/Neuartiges_Coronavirus/Fallzahlen.html,rki.spreadsheet
Deutschland,Rheinland-Pfalz,1584540000000,2020-03-18T15:00:00+01:00,603,1,0,7.269307,50.104033,RKI/eigene,https://www.rki.de/DE/Content/InfAZ/N/Neuartiges_Coronavirus/Fallzahlen.html,rki.spreadsheet
Deutschland,Saarland,1584547200000,2020-03-18T17:00:00+01:00,169,0,0,6.961042,49.41788,RKI/eigene,https://www.rki.de/DE/Content/InfAZ/N/Neuartiges_Coronavirus/Fallzahlen.html,rki.spreadsheet
Deutschland,Sachsen,1584554400000,2020-03-18T19:00:00+01:00,296,0,0,13.349228,51.022904,RKI/eigene,https://www.rki.de/DE/Content/InfAZ/N/Neuartiges_Coronavirus/Fallzahlen.html,rki.spreadsheet
Deutschland,Sachsen-Anhalt,1584547200000,2020-03-18T17:00:00+01:00,133,0,0,11.68063,51.926892,RKI/eigene,https://www.rki.de/DE/Content/InfAZ/N/Neuartiges_Coronavirus/Fallzahlen.html,rki.spreadsheet
Deutschland,Schleswig-Holstein,1584522000000,2020-03-18T10:00:00+01:00,196,0,0,9.713017,54.1882542,RKI/eigene,https://www.rki.de/DE/Content/InfAZ/N/Neuartiges_Coronavirus/Fallzahlen.html,rki.spreadsheet
Deutschland,Thüringen,1584529200000,2020-03-18T12:00:00+01:00,114,1,0,11.004142,50.894378,RKI/eigene,https://www.rki.de/DE/Content/InfAZ/N/Neuartiges_Coronavirus/Fallzahlen.html,rki.spreadsheet
Deutschland,Repatriierte,1584514800000,2020-03-18T08:00:00+01:00,2,2,0,null,null,RKI/eigene,https://www.rki.de/DE/Content/InfAZ/N/Neuartiges_Coronavirus/Fallzahlen.html,rki.spreadsheet
Kreuzfahrtschiffe und Sonstige,"Kreuzfahrtschiff ""Diamond Princess""",1584527584000,2020-03-18T11:33:04+01:00,759,325,7,139.6649,35.4498,Coronavirus COVID-19 Global Cases by Johns Hopkins CSSE,https://www.arcgis.com/apps/opsdashboard/index.html#/bda7594740fd40299423467b48e9ecf6,hopkins.arcgis
